City	Division	Lat	Lon
Raseborg Municipality, Uusimaa, Finland	Europe	59.9744373	23.435507
Asheville, North Carolina, United States	North America	35.5950581	-82.5514869
Neosho, Missouri, United States	North America	36.8689554	-94.367996
Schuyler, Nebraska, United States	North America	41.4483432	-97.0597019
Kirklareli Province, Turkey, Turkey	Europe	41.7259795	27.483839
Salem, Virginia, United States	North America	37.2934681	-80.0547626
Old Bethpage, New York, United States	North America	40.7625993	-73.4531786
Highland Heights, Ohio, United States	North America	41.5519954	-81.4784522
Westby, Wisconsin, United States	North America	43.6569157	-90.8542977
Washington, North Carolina, United States	North America	35.5465517	-77.0521742
Marlboro, New York, United States	North America	41.6056492	-73.9715276
Cuba, Missouri, United States	North America	38.0628225	-91.4034833
Fredericksburg, Pennsylvania, United States	North America	40.4437018	-76.4282933
South Salem, New York, United States	North America	41.2728649	-73.5523849
Alexander City, Alabama, United States	North America	32.944012	-85.9538532
Lititz, Pennsylvania, United States	North America	40.1573169	-76.3069014
Clawson, Michigan, United States	North America	42.5333682	-83.1463166
Opelika, Alabama, United States	North America	32.6454116	-85.3782795
Lexington, Massachusetts, United States	North America	42.4430372	-71.2289641
Canutillo, Texas, United States	North America	31.9114925	-106.6002687
Samos Town, Samos, Greece	Europe	37.7559533	26.9761997
Trois Rives, Quebec, Canada	North America	46.9699915	-72.7735229
Summerstown, Ontario, Canada	North America	45.059039	-74.558464
Tillsonburg, Ontario, Canada	North America	42.8658879	-80.7333175
Melfort, Saskatchewan, Canada	North America	52.8608387	-104.6142973
Commanda, Ontario, Canada	North America	45.951775	-79.606297
Ormsby, Ontario, Canada	North America	44.880999	-77.751428
Charlo, New Brunswick, Canada	North America	47.9903754	-66.316485
Restoule, Ontario, Canada	North America	46.02686	-79.719627
Wardner, British Columbia, Canada	North America	49.417837	-115.421878
Caraquet, New Brunswick, Canada	North America	47.7897303	-64.9628271
Grande Cache, Alberta, Canada	North America	53.888685	-119.114022
Creemore, Ontario, Canada	North America	44.3272376	-80.1061859
Georgetown, Ontario, Canada	North America	43.6502046	-79.9036236
Listowel, Ontario, Canada	North America	43.7334165	-80.9514698
Clermont, Quebec, Canada	North America	47.6910854	-70.220105
Florida Keys, Florida, United States	North America	36.0095232	-99.7971856
East Bay, Nova Scotia, Canada	North America	46.0121827	-60.3843295
Indian River, Prince Edward Island, Canada	North America	46.47714	-63.687276
Mono, Ontario, Canada	North America	44.0033629	-80.0534923
Lake of Bays, Ontario, Canada	North America	45.1811114	-78.9801596
Wadena, Saskatchewan, Canada	North America	51.944507	-103.80147
Guelph, Ontario, Canada	North America	43.5448048	-80.2481666
Bracebridge, Ontario, Canada	North America	45.0389565	-79.3078787
Saint-Lin-Laurentides, Quebec, Canada	North America	45.8524432	-73.7572393
Sainte Agathe des Monts, Quebec, Canada	North America	46.0485628	-74.281603
Marmora, Ontario, Canada	North America	44.482947	-77.682106
Bas-Caraquet, New Brunswick, Canada	North America	47.8006213	-64.8319914
Saguenay, Quebec, Canada	North America	48.4280529	-71.0684923
Houston, British Columbia, Canada	North America	54.3979972	-126.6482087
Austin, Quebec, Canada	North America	45.1840919	-72.2802898
Sainte-Eulalie, Quebec, Canada	North America	46.1020399	-72.2396232
Campbell River, British Columbia, Canada	North America	50.0331226	-125.2733354
Lakeside, Prince Edward Island, Canada	North America	46.4260231	-62.7800562
L'Orignal, Ontario, Canada	North America	45.6192681	-74.6928116
Lansdowne, Ontario, Canada	North America	44.4057559	-76.0182619
Shirley, British Columbia, Canada	North America	48.389275	-123.905092
Burk's Falls, Ontario, Canada	North America	45.619883	-79.408748
Armstrong Station, Ontario, Canada	North America	50.300648	-89.041735
Bluewater, Ontario, Canada	North America	43.483333	-81.6
Bolton, Ontario, Canada	North America	43.8741995	-79.7306602
Pugwash, Nova Scotia, Canada	North America	45.8507229	-63.6602631
Saint-Romain, Quebec, Canada	North America	45.7573366	-71.0500709
Entrelacs, Quebec, Canada	North America	46.1341235	-74.0057907
Carman, Manitoba, Canada	North America	49.5085651	-98.0016988
Petite-Vallee, Quebec, Canada	North America	49.1873166	-65.009607
Foresters Falls, Ontario, Canada	North America	45.6776206	-76.782536
Seven Sisters, Manitoba, Canada	North America	50.105343	-96.014935
Smooth Rock Falls, Ontario, Canada	North America	49.2753423	-81.6208873
L'Isle-aux-Coudres, Quebec, Canada	North America	47.3970824	-70.3654187
Anmore, British Columbia, Canada	North America	49.314625	-122.8556688
Waasis, New Brunswick, Canada	North America	45.828977	-66.578676
Ham-Sud, Quebec, Canada	North America	45.760775	-71.602519
Indian Brook, Nova Scotia, Canada	North America	46.383333	-60.533333
Lower Economy, Nova Scotia, Canada	North America	45.448678	-63.97122
Riviere-au-Tonnerre, Quebec, Canada	North America	50.2751919	-64.768603
Niagara Falls, Ontario, Canada	North America	43.0895577	-79.0849436
Trail, British Columbia, Canada	North America	49.0965676	-117.7117301
Sault Ste. Marie, Ontario, Canada	North America	46.521858	-84.3460896
Mattawa, Ontario, Canada	North America	46.31748	-78.702193
Pinawa, Manitoba, Canada	North America	50.1503346	-95.8798382
Grenfell, Saskatchewan, Canada	North America	50.4113984	-102.9300898
Gravelbourg, Saskatchewan, Canada	North America	49.8756758	-106.5573172
Wasagaming, Manitoba, Canada	North America	50.6578364	-99.963618
Ulyanovsk Oblast, Volga District, Russia	Europe	53.9793357	47.7762425
Draper, Utah, United States	North America	40.5246711	-111.8638226
Southwest Harbor, Maine, United States	North America	44.2798252	-68.3249914
Deer Park, New York, United States	North America	40.7617653	-73.3292857
Slade, Kentucky, United States	North America	37.7950836	-83.7040807
Potlatch, Idaho, United States	North America	46.9215603	-116.8982195
Newbern, Tennessee, United States	North America	36.1128479	-89.2617368
Bangor, Maine, United States	North America	44.8011821	-68.7778138
Jacksonville, North Carolina, United States	North America	34.7540524	-77.4302414
Saint Mary Of The Woods, Indiana, United States	North America	39.5107254	-87.4669729
Eden, Maryland, United States	North America	38.2806755	-75.6510368
Webster City, Iowa, United States	North America	42.4694321	-93.8159149
Beech Mountain, North Carolina, United States	North America	36.2109584	-81.8890031
Decatur, Illinois, United States	North America	39.8403147	-88.9548001
Summerton, South Carolina, United States	North America	33.6082184	-80.3511953
Mount Gilead, North Carolina, United States	North America	35.2148671	-80.0022784
Chautauqua County, New York, United States	North America	42.2312829	-79.560344
Zillah, Washington, United States	North America	46.4020734	-120.2619988
Jamaica, Vermont, United States	North America	43.1003556	-72.7784296
Groton, Connecticut, United States	North America	41.3497456	-72.0790717
East Freetown, Massachusetts, United States	North America	41.7708192	-70.9553359
Red Lake Falls, Minnesota, United States	North America	47.88219	-96.2742143
Farmville, Virginia, United States	North America	37.3020965	-78.3919401
Quantico, Virginia, United States	North America	38.5229229	-77.2900787
Hagerstown, Maryland, United States	North America	39.6417629	-77.7199932
Palm Beach, Florida, United States	North America	26.7056206	-80.0364297
Browntown, Wisconsin, United States	North America	42.5777853	-89.7942882
Beverly Hills, California, United States	North America	34.0736204	-118.4003563
Spindale, North Carolina, United States	North America	35.3601212	-81.929271
Terlingua, Texas, United States	North America	29.321586	-103.6160191
Flovilla, Georgia, United States	North America	33.253734	-83.8985171
Ringoes, New Jersey, United States	North America	40.4289892	-74.8675067
Washington, Utah, United States	North America	37.1305373	-113.5082867
Monon, Indiana, United States	North America	40.8678171	-86.8789044
Eatonton, Georgia, United States	North America	33.3267997	-83.3884961
Skykomish, Washington, United States	North America	47.7092746	-121.3601014
Mount Pleasant, Utah, United States	North America	39.5469073	-111.4554659
Dubois, Wyoming, United States	North America	43.533565	-109.6304335
Kadoka, South Dakota, United States	North America	43.833882	-101.5098658
Longmire, Washington, United States	North America	46.7502405	-121.812778
Halls, Tennessee, United States	North America	35.8756298	-89.3961835
Coon Rapids, Minnesota, United States	North America	45.1732394	-93.3030063
Elephant Butte, New Mexico, United States	North America	33.1770471	-107.2252675
Melrose, Massachusetts, United States	North America	42.4584292	-71.0661633
Stevensville, Maryland, United States	North America	38.9806679	-76.3143999
Old Town, Maine, United States	North America	44.9342349	-68.6453092
Clifftop, West Virginia, United States	North America	38.0042804	-80.9439848
Forestville, New York, United States	North America	42.4683919	-79.1769847
Euless, Texas, United States	North America	32.8370727	-97.0819541
Rudolph, Wisconsin, United States	North America	44.4960752	-89.8076239
Petersburg, Kentucky, United States	North America	39.0687387	-84.8673956
Canonsburg, Pennsylvania, United States	North America	40.2625702	-80.1872797
Dothan, Alabama, United States	North America	31.2232313	-85.3904888
Lancaster, Pennsylvania, United States	North America	40.0378755	-76.3055144
Gouldsboro, Pennsylvania, United States	North America	41.2445293	-75.4560183
Wrentham, Massachusetts, United States	North America	42.0667652	-71.3281114
Alpena, South Dakota, United States	North America	44.1813767	-98.365646
Mapleton, North Dakota, United States	North America	46.8891374	-97.0525872
Roswell, New Mexico, United States	North America	33.3942655	-104.5230242
Camp Springs, Maryland, United States	North America	38.8040027	-76.9066396
New Hampton, Iowa, United States	North America	43.0592724	-92.317864
Cornell, Wisconsin, United States	North America	45.1671881	-91.1493107
Albion, California, United States	North America	39.2232406	-123.7680598
Highland, Wisconsin, United States	North America	43.0466579	-90.3798465
Dufur, Oregon, United States	North America	45.4531754	-121.1306244
Buckingham, Pennsylvania, United States	North America	40.3149535	-75.0494329
Sheridan, Indiana, United States	North America	40.1350375	-86.2205487
American Falls, Idaho, United States	North America	42.7860226	-112.8544377
Childersburg, Alabama, United States	North America	33.2781686	-86.3549774
Fillmore, Utah, United States	North America	38.9638553	-112.3397377
Keystone, South Dakota, United States	North America	43.8955436	-103.4182455
Cudjoe Key, Florida, United States	North America	24.6715318	-81.4984176
Albion, Nebraska, United States	North America	41.6918434	-98.0012091
South Deerfield, Massachusetts, United States	North America	42.4773097	-72.6078667
Shelbyville, Michigan, United States	North America	42.5941998	-85.6372413
Ray, Michigan, United States	North America	42.743032	-82.9286428
Things to Do in Nebraska, Nebraska, United States	North America	41.8359046	-103.7081075
Ogdensburg, New Jersey, United States	North America	41.0817636	-74.5923824
Wheeler, Illinois, United States	North America	39.0467094	-88.3164319
Fall Creek Falls State Park, Tennessee, United States	North America	35.6568255	-85.3479981
Ottawa, Ohio, United States	North America	41.0192185	-84.0471666
Sarver, Pennsylvania, United States	North America	40.7241094	-79.7565197
Saint Charles, Arkansas, United States	North America	34.3729519	-91.1377008
Palmyra, Indiana, United States	North America	38.40784	-86.1099749
Rogers, Ohio, United States	North America	40.7914504	-80.6261832
Ville Platte, Louisiana, United States	North America	30.6879749	-92.2715157
Glorieta, New Mexico, United States	North America	35.5830906	-105.7700174
Kilauea, Hawaii, United States	North America	22.2119444	-159.4122222
Kyle, Texas, United States	North America	29.9891052	-97.8772267
Millstone, New Jersey, United States	North America	40.4992706	-74.5887678
Fairplay, Colorado, United States	North America	39.2247125	-106.0019618
Antioch, California, United States	North America	38.0049214	-121.805789
Marlinton, West Virginia, United States	North America	38.2234533	-80.0945099
Robinson, Texas, United States	North America	31.4676687	-97.1147225
Warsaw, Virginia, United States	North America	37.9587446	-76.7580139
Galien, Michigan, United States	North America	41.7981008	-86.4991852
Des Allemands, Louisiana, United States	North America	29.8238196	-90.4750837
Hancock, Vermont, United States	North America	43.9261192	-72.8412292
Arnolds Park, Iowa, United States	North America	43.3727408	-95.1238841
Forked River, New Jersey, United States	North America	39.8398413	-74.1901399
Providence Forge, Virginia, United States	North America	37.4418131	-77.0435799
Mayville, North Dakota, United States	North America	47.4980408	-97.3245354
Long Beach, California, United States	North America	33.7700504	-118.1937395
Chalmette, Louisiana, United States	North America	29.942783	-89.9635162
Apex, North Carolina, United States	North America	35.732652	-78.8502856
Middle Village, New York, United States	North America	40.717372	-73.87425
Lake Bluff, Illinois, United States	North America	42.2791365	-87.8443151
Bannockburn, Illinois, United States	North America	42.1933581	-87.8664579
Council Grove, Kansas, United States	North America	38.6611187	-96.4919473
Dublin, Virginia, United States	North America	37.1056784	-80.6853433
Richland, New Jersey, United States	North America	39.4914737	-74.8706048
Beaver, Arkansas, United States	North America	36.4736816	-93.7674166
Paris, Texas, United States	North America	33.6609389	-95.555513
Forbes, North Dakota, United States	North America	45.9435847	-98.7820478
Ticonderoga, New York, United States	North America	43.8486707	-73.4234531
Hartland, Wisconsin, United States	North America	43.105008	-88.3420398
Channing, Michigan, United States	North America	46.1416631	-88.0939994
Kaycee, Wyoming, United States	North America	43.7102499	-106.6389338
Columbus, Indiana, United States	North America	39.2014404	-85.9213796
East Hampton, Connecticut, United States	North America	41.5757748	-72.5026249
Steilacoom, Washington, United States	North America	47.1698197	-122.6026274
Westminster, Colorado, United States	North America	39.8366528	-105.0372046
Nyack, New York, United States	North America	41.0906519	-73.9179146
Giddings, Texas, United States	North America	30.1827159	-96.936371
Hammonton, New Jersey, United States	North America	39.6365056	-74.8023853
Higginsville, Missouri, United States	North America	39.0725121	-93.7171621
Happy Valley, Oregon, United States	North America	45.446787	-122.5303688
Jackman, Maine, United States	North America	45.6240392	-70.2521512
Kahakuloa, Hawaii, United States	North America	20.9997222	-156.5538889
Columbus, North Carolina, United States	North America	35.2531698	-82.1970584
Roseville, Minnesota, United States	North America	45.0060767	-93.1566107
Sayner, Wisconsin, United States	North America	45.9860625	-89.5326435
Pahrump, Nevada, United States	North America	36.2082943	-115.9839147
Oak Harbor, Ohio, United States	North America	41.5067173	-83.1465875
Galesburg, Michigan, United States	North America	42.2886529	-85.418056
Virginia Beach, Virginia, United States	North America	36.8529263	-75.977985
Herrick Center, Pennsylvania, United States	North America	41.7420272	-75.4893506
Lynwood, California, United States	North America	33.930293	-118.2114603
Pointe A La Hache, Louisiana, United States	North America	29.5763259	-89.7917328
Crane Hill, Alabama, United States	North America	34.093991	-87.0630624
Ninilchik, Alaska, United States	North America	60.0513889	-151.6688889
Cutler, Maine, United States	North America	44.6575794	-67.2038738
Shoshone, Idaho, United States	North America	42.9360165	-114.4058752
New Glarus, Wisconsin, United States	North America	42.8144473	-89.6351217
Oak Lawn, Illinois, United States	North America	41.719978	-87.7479528
Whittier, North Carolina, United States	North America	35.4361902	-83.3599523
Lytle Creek, California, United States	North America	34.2591728	-117.5000512
Fairhaven, Massachusetts, United States	North America	41.6376043	-70.9036487
Westport, New York, United States	North America	44.1839413	-73.4356831
Hiko, Nevada, United States	North America	37.6282856	-115.2155933
Sandstone, West Virginia, United States	North America	37.7709515	-80.8914786
Baldwin City, Kansas, United States	North America	38.775007	-95.1863603
Willoughby Hills, Ohio, United States	North America	41.5983823	-81.4184471
De Soto, Kansas, United States	North America	38.9791709	-94.9685783
Ridgewood, New York, United States	North America	40.7043986	-73.9018292
Lake Elsinore, California, United States	North America	33.6680772	-117.3272615
Orange Park, Florida, United States	North America	30.1660736	-81.706484
Carsonville, Michigan, United States	North America	43.4269667	-82.6713183
Brownville, Nebraska, United States	North America	40.3977793	-95.6580455
Redondo Beach, California, United States	North America	33.8491816	-118.3884078
Bremen, Georgia, United States	North America	33.7212179	-85.1455036
Scotland, Maryland, United States	North America	38.0890152	-76.3618926
Arrington, Tennessee, United States	North America	35.8681199	-86.7091643
Clermont, Indiana, United States	North America	39.8097656	-86.3224925
Lenhartsville, Pennsylvania, United States	North America	40.5728712	-75.8879807
Geneva, Ohio, United States	North America	41.8050539	-80.9481489
Miramar Beach, Florida, United States	North America	30.374367	-86.3585578
Fayette, Iowa, United States	North America	42.8419255	-91.8021071
South Easton, Massachusetts, United States	North America	42.0467781	-71.0806659
Owensville, Indiana, United States	North America	38.2719894	-87.6878036
Newry, Maine, United States	North America	44.4884245	-70.7885765
Concord, Ohio, United States	North America	41.674491	-81.2245458
Southwest Ranches, Florida, United States	North America	26.0587001	-80.3372733
Rileyville, Virginia, United States	North America	38.7651162	-78.3880612
Bay Harbor Islands, Florida, United States	North America	25.8875948	-80.1311564
Kersey, Colorado, United States	North America	40.387481	-104.5616256
Fairmont, West Virginia, United States	North America	39.4850848	-80.1425781
Thurmont, Maryland, United States	North America	39.6237094	-77.4108201
Evanston, Illinois, United States	North America	42.0450722	-87.6876969
Arlington, Georgia, United States	North America	31.4398976	-84.7249188
Oakdale, Pennsylvania, United States	North America	40.3981246	-80.1856134
Bonaparte, Iowa, United States	North America	40.6980874	-91.8032228
Gassville, Arkansas, United States	North America	36.2831238	-92.4940505
Glen Jean, West Virginia, United States	North America	37.9265014	-81.1501016
Paris, Arkansas, United States	North America	35.2920325	-93.7299173
Penrose, North Carolina, United States	North America	35.2723372	-82.6390121
Soudan, Minnesota, United States	North America	47.8158812	-92.2383876
Bloomfield, New York, United States	North America	42.8972624	-77.4214278
Greenfield, California, United States	North America	36.3207998	-121.2438138
South Hadley, Massachusetts, United States	North America	42.2591729	-72.5747934
Pepperell, Massachusetts, United States	North America	42.6659232	-71.5884363
Monterey, Tennessee, United States	North America	36.1475642	-85.2683021
Earlville, New York, United States	North America	42.7397917	-75.5451804
Three Oaks, Michigan, United States	North America	41.7986545	-86.6105778
Peoa, Utah, United States	North America	40.7251704	-111.3418293
Misquamicut, Rhode Island, United States	North America	41.3224102	-71.8167464
Craig, Montana, United States	North America	47.0743888	-111.9633303
Eden Valley, Minnesota, United States	North America	45.324998	-94.5445145
South Williamson, Kentucky, United States	North America	37.6720458	-82.2840298
Richardson, Texas, United States	North America	32.9483335	-96.7298519
Kane, Pennsylvania, United States	North America	41.6628394	-78.8111427
Oxbow, Oregon, United States	North America	44.9748785	-116.8629359
Port Washington, Wisconsin, United States	North America	43.3872247	-87.875644
Minnesota Lake, Minnesota, United States	North America	43.8419036	-93.8318949
Buena Park, California, United States	North America	33.8675143	-117.9981181
Otsego, Michigan, United States	North America	42.4605904	-85.696406
Weatherly, Pennsylvania, United States	North America	40.9417535	-75.82964
Sturgeon Lake, Minnesota, United States	North America	46.3810573	-92.8238121
Ashtabula, Ohio, United States	North America	41.8650534	-80.7898089
Glenwood City, Wisconsin, United States	North America	45.0585747	-92.1724075
Augusta, Missouri, United States	North America	38.5725523	-90.882081
Angelica, New York, United States	North America	42.3067345	-78.0158388
Nolensville, Tennessee, United States	North America	35.9522852	-86.6694413
Three Rivers, Texas, United States	North America	28.4602717	-98.1825071
Glenwood, New Mexico, United States	North America	33.3167293	-108.8831188
Mexico, Maine, United States	North America	44.5571093	-70.5433579
Maxwell, Nebraska, United States	North America	41.0785928	-100.5252843
Nags Head, North Carolina, United States	North America	35.9573922	-75.6240619
Manville, New Jersey, United States	North America	40.5409367	-74.5876569
Karnes City, Texas, United States	North America	28.8849772	-97.9008355
Wampum, Pennsylvania, United States	North America	40.8881184	-80.3381195
Princeton Junction, New Jersey, United States	North America	40.3173301	-74.6198791
Pocahontas, Illinois, United States	North America	38.8278248	-89.5400849
Donald, Oregon, United States	North America	45.2223418	-122.8392624
Isla Vista, California, United States	North America	34.4133292	-119.8609718
Nesconset, New York, United States	North America	40.8520426	-73.1540004
Fountain Inn, South Carolina, United States	North America	34.6890095	-82.1956679
Phoenix, Maryland, United States	North America	39.51291	-76.6074575
Beloit, Kansas, United States	North America	39.4561178	-98.1061595
Alpaugh, California, United States	North America	35.8877316	-119.4873422
Dalton, Pennsylvania, United States	North America	41.5342441	-75.7360253
Argyle, Minnesota, United States	North America	48.3327553	-96.8208949
Hancock, Michigan, United States	North America	47.1268714	-88.5809563
Vestavia Hills, Alabama, United States	North America	33.4487183	-86.7877668
Forest Knolls, California, United States	North America	38.0163114	-122.6898986
Vicksburg, Mississippi, United States	North America	32.3526456	-90.877882
West Chester, Pennsylvania, United States	North America	39.9606643	-75.6054882
Kaktovik, Alaska, United States	North America	70.1319444	-143.6238889
Mechanicsburg, Ohio, United States	North America	40.0720039	-83.5563133
Vanceboro, North Carolina, United States	North America	35.3084953	-77.1541194
Blaine, Washington, United States	North America	48.993723	-122.7471191
Orrtanna, Pennsylvania, United States	North America	39.8450942	-77.3608196
Lancaster, New Hampshire, United States	North America	44.4889204	-71.5692477
Mexico Beach, Florida, United States	North America	29.9479833	-85.4179766
Harrisburg, Pennsylvania, United States	North America	40.2731911	-76.8867008
Panacea, Florida, United States	North America	30.0291195	-84.3986166
Columbia, Illinois, United States	North America	38.4436637	-90.2012239
Sugar Grove, Ohio, United States	North America	39.6264539	-82.5484932
Wausau, Wisconsin, United States	North America	44.9591352	-89.6301221
White City, Oregon, United States	North America	42.431618	-122.8354426
Moore, Oklahoma, United States	North America	35.3395079	-97.4867028
Tuolumne, California, United States	North America	37.9627027	-120.2412999
Mill Neck, New York, United States	North America	40.8870431	-73.5551246
Wilmington, New York, United States	North America	44.3886137	-73.8154356
Sugar Grove, West Virginia, United States	North America	38.5110091	-79.3219597
Los Altos, California, United States	North America	37.3852183	-122.1141298
Borre, Moen, Denmark	Europe	54.9958554	12.4431776
Mansonville, Quebec, Canada	North America	45.049737	-72.391992
Markdale, Ontario, Canada	North America	44.3186787	-80.6478828
Pitt Meadows, British Columbia, Canada	North America	49.2190648	-122.6895165
Kearney, Ontario, Canada	North America	45.556352	-79.2235611
Klemtu, British Columbia, Canada	North America	52.5936331	-128.5241004
Forteau, Newfoundland and Labrador, Canada	North America	51.47846	-56.957563
Grand Etang, Nova Scotia, Canada	North America	46.55	-61.033333
McKellar, Ontario, Canada	North America	45.4712069	-79.8497018
Whycocomagh, Nova Scotia, Canada	North America	45.9751009	-61.1215811
Montpellier, Quebec, Canada	North America	45.9251244	-75.2534886
Prince George, British Columbia, Canada	North America	53.9170641	-122.7496693
Gananoque, Ontario, Canada	North America	44.330618	-76.161864
Gogama, Ontario, Canada	North America	47.67449	-81.723429
Fort St. John, British Columbia, Canada	North America	56.252423	-120.846409
Happy Valley-Goose Bay, Newfoundland and Labrador, Canada	North America	53.3016826	-60.3260842
Leduc, Alberta, Canada	North America	53.2580126	-113.5502217
Cap-Pele, New Brunswick, Canada	North America	46.231764	-64.2677704
Water Valley, Alberta, Canada	North America	51.503704	-114.610695
Saint Lawrence, Newfoundland and Labrador, Canada	North America	46.925167	-55.395229
Peachland, British Columbia, Canada	North America	49.7702994	-119.7407899
Ingersoll, Ontario, Canada	North America	43.0381628	-80.884049
West Bay, Nova Scotia, Canada	North America	45.7026346	-61.1610939
Cremona, Alberta, Canada	North America	51.5451035	-114.4900952
Desbiens, Quebec, Canada	North America	48.4177323	-71.9489606
Port Renfrew, British Columbia, Canada	North America	48.552966	-124.422299
Sherwood Park, Alberta, Canada	North America	53.5412083	-113.2957365
Sainte-Rose-du-Nord, Quebec, Canada	North America	48.3972399	-70.6813426
Oshawa, Ontario, Canada	North America	43.8970929	-78.8657912
Campbellville, Ontario, Canada	North America	43.4881366	-79.9838061
Rothesay, New Brunswick, Canada	North America	45.3888261	-65.9942973
Beaverlodge, Alberta, Canada	North America	55.213974	-119.423302
Kingsclear, New Brunswick, Canada	North America	45.886642	-66.907084
Killarney, Manitoba, Canada	North America	49.181664	-99.664952
Mayerthorpe, Alberta, Canada	North America	53.9525013	-115.1397259
Wandering River, Alberta, Canada	North America	55.201392	-112.465214
Maryhill, Ontario, Canada	North America	43.534516	-80.3906669
Kerrobert, Saskatchewan, Canada	North America	51.9185447	-109.136794
Saint Margarets, Prince Edward Island, Canada	North America	46.45436	-62.381012
Kimberley, Ontario, Canada	North America	44.383333	-80.533333
Borden, Saskatchewan, Canada	North America	52.4050451	-107.2396555
Ingonish, Nova Scotia, Canada	North America	46.64083	-60.403964
West Hawk Lake, Manitoba, Canada	North America	49.764563	-95.1841172
Notre-Dame-des-Monts, Quebec, Canada	North America	47.6587871	-70.4030407
Allenford, Ontario, Canada	North America	44.536986	-81.178444
Shemogue, New Brunswick, Canada	North America	46.155472	-64.188306
Bishop's Falls, Newfoundland and Labrador, Canada	North America	49.0138869	-55.487801
Piopolis, Quebec, Canada	North America	45.4755038	-70.9482422
Elliot Lake, Ontario, Canada	North America	46.386179	-82.650941
Sainte Brigitte de Laval, Quebec, Canada	North America	47.002378	-71.1942119
Nigadoo, New Brunswick, Canada	North America	47.7395349	-65.7126953
Cox's Cove, Newfoundland and Labrador, Canada	North America	49.116498	-58.075726
Fort Vermilion, Alberta, Canada	North America	58.3873325	-116.0197006
Sainte-Melanie, Quebec, Canada	North America	46.1445113	-73.5379919
Saint Aime Des Lacs, Quebec, Canada	North America	47.6903516	-70.350327
Riviere-Madeleine, Quebec, Canada	North America	49.239531	-65.302734
L'Anse Amour, Newfoundland and Labrador, Canada	North America	51.46787	-56.871684
Kincardine, Ontario, Canada	North America	44.2759345	-81.5596427
McLennan, Alberta, Canada	North America	55.7117851	-116.9099808
Turkey Point, Ontario, Canada	North America	42.680986	-80.332176
Kingsville, Ontario, Canada	North America	42.0362841	-82.7389809
Kamouraska, Quebec, Canada	North America	47.566059	-69.865995
Sayward, British Columbia, Canada	North America	50.383718	-125.960212
Headingley, Manitoba, Canada	North America	49.8870139	-97.377247
Dildo, Newfoundland and Labrador, Canada	North America	47.5706202	-53.5555661
Peterborough, Ontario, Canada	North America	44.309058	-78.319747
Kitimat, British Columbia, Canada	North America	54.049366	-128.6283528
Eganville, Ontario, Canada	North America	45.539935	-77.1010788
Stella, Ontario, Canada	North America	44.170086	-76.7010169
Saint-Faustin-Lac-Carre, Quebec, Canada	North America	46.092449	-74.4733252
Harbour Breton, Newfoundland and Labrador, Canada	North America	47.4774987	-55.8258748
Summerland, British Columbia, Canada	North America	49.6073297	-119.6768815
Eastman, Quebec, Canada	North America	45.301296	-72.315042
St. Andrews, Manitoba, Canada	North America	50.2625413	-96.9841797
Battleford, Saskatchewan, Canada	North America	52.7362682	-108.3052431
Tappen, British Columbia, Canada	North America	50.782998	-119.334404
Lambton, Quebec, Canada	North America	45.8406595	-71.0890802
Port Perry, Ontario, Canada	North America	44.1050454	-78.944148
Riverside Albert, New Brunswick, Canada	North America	45.7492949	-64.738664
Kimmirut, Nunavut, Canada	North America	62.847419	-69.869203
Calabogie, Ontario, Canada	North America	45.299295	-76.721166
Canning, Nova Scotia, Canada	North America	45.1604308	-64.4282179
Manitoulin Island, Ontario, Canada	North America	45.7026471	-82.0371761
Harcourt, Ontario, Canada	North America	45.085751	-78.151221
Woodstock, Ontario, Canada	North America	43.1314966	-80.7471651
Latchford, Ontario, Canada	North America	47.329887	-79.811053
Spaniard's Bay, Newfoundland and Labrador, Canada	North America	47.6128498	-53.2794249
High River, Alberta, Canada	North America	50.5801021	-113.8707312
Routhierville, Quebec, Canada	North America	48.1429438	-67.0778958
Harvey, New Brunswick, Canada	North America	45.7297822	-67.0065717
Saint-Charles-Borromee, Quebec, Canada	North America	46.048522	-73.4626679
Agassiz, British Columbia, Canada	North America	49.2389409	-121.7658827
Ganges, British Columbia, Canada	North America	48.8544259	-123.5005072
Wolfe Island, Ontario, Canada	North America	44.1758657	-76.3984537
Baie Sainte-Catherine, Quebec, Canada	North America	48.07634	-69.8104594
Stanley Bridge, Prince Edward Island, Canada	North America	46.461958	-63.453724
Dorval, Quebec, Canada	North America	45.4503213	-73.7500485
Ile du Havre aux Maisons, Quebec, Canada	North America	47.4600248	-61.7571718
La Martre, Quebec, Canada	North America	49.1240007	-66.202894
Provost, Alberta, Canada	North America	52.3559533	-110.2607913
Stonewall, Manitoba, Canada	North America	50.1351544	-97.3273965
Manitou Beach, Saskatchewan, Canada	North America	51.719696	-105.443033
New Carlisle, Quebec, Canada	North America	48.0097226	-65.3338139
Boissevain, Manitoba, Canada	North America	49.2304365	-100.0595039
High Level, Alberta, Canada	North America	58.516354	-117.13516
Glenboro, Manitoba, Canada	North America	49.5580017	-99.2891025
Port aux Basques, Newfoundland and Labrador, Canada	North America	47.5721149	-59.136429
North Bay, Ontario, Canada	North America	46.3091152	-79.4608204
South River, Ontario, Canada	North America	45.8410378	-79.3795728
Witless Bay, Newfoundland and Labrador, Canada	North America	47.2826676	-52.8325042
Stanstead, Quebec, Canada	North America	45.0126146	-72.0957682
Frankford, Ontario, Canada	North America	44.2012812	-77.5959798
Hudson's Hope, British Columbia, Canada	North America	56.031873	-121.90508
New World Island, Newfoundland and Labrador, Canada	North America	49.5605697	-54.6591081
Port Dover, Ontario, Canada	North America	42.7865225	-80.2032779
Girardville, Quebec, Canada	North America	49.0074587	-72.5581414
Valleyview, Alberta, Canada	North America	55.06916	-117.281106
Harrow, Ontario, Canada	North America	42.0355591	-82.918148
Ainsworth Hot Springs, British Columbia, Canada	North America	49.7355466	-116.9111897
Bloomfield Ridge, New Brunswick, Canada	North America	45.563524	-65.6857689
Levis, Quebec, Canada	North America	46.7382265	-71.2464592
Nackawic, New Brunswick, Canada	North America	45.9891389	-67.2412221
Saint-Paul-de-Montminy, Quebec, Canada	North America	46.731057	-70.3603289
Waterville, Quebec, Canada	North America	45.2773623	-71.8908875
Alert Bay, British Columbia, Canada	North America	50.5844855	-126.9254093
Lytton, British Columbia, Canada	North America	50.233258	-121.581404
Meaford, Ontario, Canada	North America	44.6059438	-80.5936871
Rustico, Prince Edward Island, Canada	North America	46.4582755	-63.3131925
Black Diamond, Alberta, Canada	North America	50.6883865	-114.2326442
Hartland, New Brunswick, Canada	North America	46.3012659	-67.5218462
Durham Sud, Quebec, Canada	North America	45.6580798	-72.3431063
Pontiac, Quebec, Canada	North America	45.5702933	-76.1089202
Twillingate, Newfoundland and Labrador, Canada	North America	49.6486948	-54.7622673
Redwood Meadows, Alberta, Canada	North America	50.9876643	-114.5093159
Cote Saint-Luc, Quebec, Canada	North America	45.4680498	-73.6729464
Bethany, Ontario, Canada	North America	44.1821907	-78.5672106
Buffalo Point, Manitoba, Canada	North America	49.012444	-95.239622
Saint-Gabriel-De-Brandon, Quebec, Canada	North America	46.2740235	-73.3514138
Nominingue, Quebec, Canada	North America	46.3972092	-75.0243765
Franklin, Quebec, Canada	North America	45.0440912	-73.8996322
Martensville, Saskatchewan, Canada	North America	52.2931212	-106.6578378
Brookfield, Nova Scotia, Canada	North America	45.2537508	-63.2795521
Notre-Dame-des-Sept-Douleurs, Quebec, Canada	North America	48.0255397	-69.4424346
Saint Jean Port Joli, Quebec, Canada	North America	47.2153806	-70.2694167
Saint-Irenee, Quebec, Canada	North America	47.567372	-70.2498019
Eastend, Saskatchewan, Canada	North America	49.514043	-108.8199661
Tumbler Ridge, British Columbia, Canada	North America	55.125795	-120.993154
Goderich, Ontario, Canada	North America	43.7428345	-81.7138942
L'Isle-aux-Grues, Quebec, Canada	North America	47.0666667	-70.55
Georgeville, Quebec, Canada	North America	45.139059	-72.252236
Rawdon, Quebec, Canada	North America	46.065488	-73.7340588
Little Sands, Prince Edward Island, Canada	North America	45.9656499	-62.652414
Bonshaw, Prince Edward Island, Canada	North America	46.1957804	-63.3542687
Natashquan, Quebec, Canada	North America	50.1657158	-61.8234354
Lac-Drolet, Quebec, Canada	North America	45.7203534	-70.8471811
Redcliff, Alberta, Canada	North America	50.0719947	-110.7818827
Vulcan, Alberta, Canada	North America	50.4031725	-113.2612478
Saint Charles, Ontario, Canada	North America	46.362467	-80.4167049
St-Mathieu-de-Beloeil, Quebec, Canada	North America	45.605068	-73.2478531
Blanc-Sablon, Quebec, Canada	North America	51.4264451	-57.1313148
Lone Butte, British Columbia, Canada	North America	51.554651	-121.20105
Watson Lake, Yukon, Canada	North America	60.062806	-128.710913
Oliver, British Columbia, Canada	North America	49.1823264	-119.550428
Esterel, Quebec, Canada	North America	46.0358127	-74.0261752
Ignace, Ontario, Canada	North America	49.415946	-91.658744
Mundleville, New Brunswick, Canada	North America	46.585942	-64.916287
Hedley, British Columbia, Canada	North America	49.357177	-120.076544
Wasaga Beach, Ontario, Canada	North America	44.5207419	-80.0160668
McGregor, Ontario, Canada	North America	42.1469743	-82.967186
Ear Falls, Ontario, Canada	North America	50.7558385	-93.3565202
Teslin, Yukon, Canada	North America	60.1686052	-132.7203711
Kamloops, British Columbia, Canada	North America	50.674522	-120.3272674
Singhampton, Ontario, Canada	North America	44.350193	-80.248215
Bowser, British Columbia, Canada	North America	49.4389905	-124.6835177
Canso, Nova Scotia, Canada	North America	45.3362846	-60.9944422
Margaree Valley, Nova Scotia, Canada	North America	46.35	-60.966667
Porters Lake, Nova Scotia, Canada	North America	44.7433333	-63.2972222
Windermere, British Columbia, Canada	North America	50.462525	-115.9886461
Chase, British Columbia, Canada	North America	50.8188483	-119.6845191
Port Albert, Ontario, Canada	North America	43.876743	-81.715186
Rock Creek, British Columbia, Canada	North America	49.0559264	-118.9976835
Riverview, New Brunswick, Canada	North America	46.0612537	-64.8052183
Saint-Lazare-de-Bellechasse, Quebec, Canada	North America	46.653007	-70.8069881
Spences Bridge, British Columbia, Canada	North America	50.414053	-121.359529
Peggy's Cove, Nova Scotia, Canada	North America	44.4934044	-63.9125577
Port au Choix, Newfoundland and Labrador, Canada	North America	50.7029112	-57.3511168
Kitchener, Ontario, Canada	North America	43.450301	-80.4831917
Head of Jeddore, Nova Scotia, Canada	North America	44.775792	-63.05537
Cobden, Ontario, Canada	North America	45.6273519	-76.8823605
Waterloo, Quebec, Canada	North America	45.3440765	-72.5164034
Saint-Cuthbert, Quebec, Canada	North America	46.1495387	-73.2277705
Maitland, Ontario, Canada	North America	44.6361691	-75.6118557
Stratford, Ontario, Canada	North America	43.3700007	-80.9822286
Mayne Island, British Columbia, Canada	North America	48.8380451	-123.2877314
Brossard, Quebec, Canada	North America	45.4514357	-73.4619103
Bay Bulls, Newfoundland and Labrador, Canada	North America	47.3185144	-52.8155283
Westlock, Alberta, Canada	North America	54.1521565	-113.851419
Shelburne, Ontario, Canada	North America	44.079119	-80.2011728
Brackendale, British Columbia, Canada	North America	49.7660145	-123.1491278
Barrhead, Alberta, Canada	North America	54.1230722	-114.4016742
Balfour, British Columbia, Canada	North America	49.62475	-116.962879
Tsawwassen, British Columbia, Canada	North America	49.018038	-123.0818253
Rosseau, Ontario, Canada	North America	45.2621936	-79.6435917
Stratford, Quebec, Canada	North America	45.8004073	-71.3028626
Tatamagouche, Nova Scotia, Canada	North America	45.7092048	-63.2941871
Buckinghorse River, British Columbia, Canada	North America	57.3851246	-122.8434221
Havre-Aubert, Quebec, Canada	North America	47.2333333	-61.9666667
Notre-Dame-de-la-Salette, Quebec, Canada	North America	45.765729	-75.584528
Victoriaville, Quebec, Canada	North America	46.0556724	-71.9589559
Orillia, Ontario, Canada	North America	44.6082465	-79.4196783
Brownsburg-Chatham, Quebec, Canada	North America	45.6608378	-74.4472133
Fort Liard, Northwest Territories, Canada	North America	60.2395738	-123.4733158
Errington, British Columbia, Canada	North America	49.2894701	-124.3591725
Notre-Dame-des-Pins, Quebec, Canada	North America	46.1844947	-70.7084411
Winnipegosis, Manitoba, Canada	North America	51.6499367	-99.9265578
Chambly, Quebec, Canada	North America	45.4391627	-73.2902463
Souris, Prince Edward Island, Canada	North America	46.3549799	-62.2518341
Hebertville, Quebec, Canada	North America	48.3357959	-71.6609379
Valemount, British Columbia, Canada	North America	52.83122	-119.264311
Norland, Ontario, Canada	North America	44.727445	-78.811733
Flin Flon, Manitoba, Canada	North America	54.7657685	-101.8762148
Newmarket, Ontario, Canada	North America	44.059187	-79.461256
Nakusp, British Columbia, Canada	North America	50.2398537	-117.8011055
Dawson, Yukon, Canada	North America	64.0600696	-139.4320347
Casselman, Ontario, Canada	North America	45.3107048	-75.0893653
Beachburg, Ontario, Canada	North America	45.7357254	-76.8631085
Whitewood, Saskatchewan, Canada	North America	50.329875	-102.2666277
Advocate Harbour, Nova Scotia, Canada	North America	45.3369594	-64.7831203
Saint-Gabriel-de-Valcartier, Quebec, Canada	North America	46.937554	-71.470228
Caledonia, Ontario, Canada	North America	43.0647528	-79.9550748
Roxton Pond, Quebec, Canada	North America	45.4775552	-72.6626335
Cardigan, Prince Edward Island, Canada	North America	46.2336872	-62.6217853
Ste. Anne, Manitoba, Canada	North America	49.669688	-96.647311
Bourget, Ontario, Canada	North America	45.4350506	-75.1581561
Danville, Quebec, Canada	North America	45.7849952	-72.0145063
La Scie, Newfoundland and Labrador, Canada	North America	49.9577008	-55.61196
Fernie, British Columbia, Canada	North America	49.5040452	-115.063065
Botwood, Newfoundland and Labrador, Canada	North America	49.1422983	-55.3440853
New London, Prince Edward Island, Canada	North America	46.4646714	-63.5111346
Behchoko, Northwest Territories, Canada	North America	62.827996	-116.049049
Mill Bay, British Columbia, Canada	North America	48.6505297	-123.5571899
Cache Creek, British Columbia, Canada	North America	50.8108099	-121.3233237
Ben Eoin, Nova Scotia, Canada	North America	45.9740292	-60.4339797
Big River, Saskatchewan, Canada	North America	53.8334823	-107.0312225
Port au Port, Newfoundland and Labrador, Canada	North America	48.556923	-58.71149
Nicolet, Quebec, Canada	North America	46.2274055	-72.6191742
Cape Anguille, Newfoundland and Labrador, Canada	North America	47.9007307	-59.4110946
Russell, Manitoba, Canada	North America	50.7803696	-101.2849376
La Sarre, Quebec, Canada	North America	48.805266	-79.2028572
Bridge Lake, British Columbia, Canada	North America	51.481605	-120.729613
Arnold's Cove, Newfoundland and Labrador, Canada	North America	47.7574448	-53.9887437
Boularderie, Nova Scotia, Canada	North America	46.1666669	-60.566667
Del Bonita, Alberta, Canada	North America	49.0294669	-112.78932
St. Albert, Alberta, Canada	North America	53.6304753	-113.625642
Elora, Ontario, Canada	North America	43.683715	-80.4305427
Brooklin, Ontario, Canada	North America	43.9631607	-78.9571069
Logan Lake, British Columbia, Canada	North America	50.4986205	-121.0328413
La Minerve, Quebec, Canada	North America	46.1817689	-74.9848597
Telkwa, British Columbia, Canada	North America	54.695016	-127.04761
West Dover, Nova Scotia, Canada	North America	44.4916579	-63.8752214
Lillooet, British Columbia, Canada	North America	50.6863017	-121.9367502
Cap-Chat, Quebec, Canada	North America	49.0940662	-66.6857394
Oxbow, Saskatchewan, Canada	North America	49.2272232	-102.1695336
Kipling, Saskatchewan, Canada	North America	50.1022893	-102.6323009
Kirkfield, Ontario, Canada	North America	44.563164	-78.979981
Hinton, Alberta, Canada	North America	53.4037088	-117.5718423
Noel, Nova Scotia, Canada	North America	45.295425	-63.748445
Doaktown, New Brunswick, Canada	North America	46.5537385	-66.1364081
Grimsby, Ontario, Canada	North America	43.1942126	-79.5624195
Roberts Creek, British Columbia, Canada	North America	49.4301881	-123.6495116
Morris, Manitoba, Canada	North America	49.3544829	-97.3646884
Gambo, Newfoundland and Labrador, Canada	North America	48.7850799	-54.2133023
Wells, British Columbia, Canada	North America	53.0859739	-121.6244177
Saint-Jean-de-Matha, Quebec, Canada	North America	46.2313463	-73.527589
Shuniah, Ontario, Canada	North America	48.671288	-88.6650479
Bassano, Alberta, Canada	North America	50.7894791	-112.4686447
Rossburn, Manitoba, Canada	North America	50.6683442	-100.8108714
Fort Providence, Northwest Territories, Canada	North America	61.3576238	-117.6606538
Labrador City, Newfoundland and Labrador, Canada	North America	52.9390014	-66.914216
Belleoram, Newfoundland and Labrador, Canada	North America	47.5267497	-55.4149733
Rosebud, Alberta, Canada	North America	51.299665	-112.950867
Pangnirtung, Nunavut, Canada	North America	66.1465578	-65.7012182
Harrison Mills, British Columbia, Canada	North America	49.241664	-121.945875
Brooks, Alberta, Canada	North America	50.5659752	-111.8991668
Shaunavon, Saskatchewan, Canada	North America	49.6463379	-108.4215787
Shippagan, New Brunswick, Canada	North America	47.7439284	-64.7056928
Warwick, Quebec, Canada	North America	45.949523	-71.9970864
Compton, Quebec, Canada	North America	45.2207021	-71.8009691
Strathmore, Alberta, Canada	North America	51.0378523	-113.4002873
Trois-Pistoles, Quebec, Canada	North America	48.1192674	-69.1652622
Saint-Mathieu-de-Rioux, Quebec, Canada	North America	48.178839	-68.973081
Saint-Cesaire, Quebec, Canada	North America	45.410364	-73.002159
Britt, Ontario, Canada	North America	45.774835	-80.556459
Sainte-Lucie-des-Laurentides, Quebec, Canada	North America	46.1227681	-74.2011783
Saint Pacome, Quebec, Canada	North America	47.3957503	-69.9613881
Coronach, Saskatchewan, Canada	North America	49.1136432	-105.5230904
Saint-Joseph-du-Lac, Quebec, Canada	North America	45.5339469	-74.0279695
St. Martins, New Brunswick, Canada	North America	45.348151	-65.555624
Westville, Nova Scotia, Canada	North America	45.5606015	-62.7111798
Denman Island, British Columbia, Canada	North America	49.5629711	-124.7981005
Deloraine, Manitoba, Canada	North America	49.1928819	-100.493984
Barrington, Nova Scotia, Canada	North America	43.5643397	-65.5643972
Dudswell, Quebec, Canada	North America	45.6145435	-71.5957777
Bridgetown, Nova Scotia, Canada	North America	44.8418357	-65.2883507
Blue Mountains, Ontario, Canada	North America	44.506718	-80.318511
Saint Antoine de Tilly, Quebec, Canada	North America	46.6404233	-71.5906898
Inverness, Nova Scotia, Canada	North America	46.2761718	-61.0541688
Rossport, Ontario, Canada	North America	48.8347157	-87.5172813
Kentville, Nova Scotia, Canada	North America	45.0769115	-64.4944735
Thorndale, Ontario, Canada	North America	43.1029555	-81.1390073
Saint-Felicien, Quebec, Canada	North America	48.6517071	-72.4489776
Bell Island, Newfoundland and Labrador, Canada	North America	47.6262283	-52.9677012
Arborg, Manitoba, Canada	North America	50.9061035	-97.2181713
Welshpool, New Brunswick, Canada	North America	44.8867874	-66.949815
Senneterre, Quebec, Canada	North America	48.390597	-77.2411674
Cole Harbour, Nova Scotia, Canada	North America	44.6458149	-63.4534447
Otonabee-South Monaghan, Ontario, Canada	North America	44.2715843	-78.1564432
Quesnel, British Columbia, Canada	North America	52.9817372	-122.4949058
Hagensborg, British Columbia, Canada	North America	52.3908829	-126.5422538
Bay Roberts, Newfoundland and Labrador, Canada	North America	47.5820518	-53.2798524
New Ross, Nova Scotia, Canada	North America	44.737014	-64.4566509
Port Coquitlam, British Columbia, Canada	North America	49.2628382	-122.7810708
Portugal Cove, Newfoundland and Labrador, Canada	North America	47.573435	-52.858294
Chateau Richer, Quebec, Canada	North America	46.969606	-71.017573
Mont-Tremblant National Park, Quebec, Canada	North America	46.261453	-74.509877
Yoho National Park, British Columbia, Canada	North America	51.4666667	-116.5833333
Woodbridge, Ontario, Canada	North America	43.7761753	-79.609243
Saint Peters Bay, Prince Edward Island, Canada	North America	46.4174453	-62.5810333
Gander, Newfoundland and Labrador, Canada	North America	48.954408	-54.6103488
Iron Bridge, Ontario, Canada	North America	46.27853	-83.222592
Emo, Ontario, Canada	North America	48.6322193	-93.8350254
Bayside, New Brunswick, Canada	North America	45.1309781	-67.1082141
Abbotsford, British Columbia, Canada	North America	49.0504377	-122.3044697
Repentigny, Quebec, Canada	North America	45.7532854	-73.4400814
Saint Donat, Quebec, Canada	North America	46.3182025	-74.2661597
Teulon, Manitoba, Canada	North America	50.3868727	-97.2606903
Milk River, Alberta, Canada	North America	49.1501259	-112.0869122
Deseronto, Ontario, Canada	North America	44.1953988	-77.0487329
Triton, Newfoundland and Labrador, Canada	North America	49.52182	-55.6107437
Tulameen, British Columbia, Canada	North America	49.54586	-120.76024
Mount Forest, Ontario, Canada	North America	43.981093	-80.7358653
Prince Rupert, British Columbia, Canada	North America	54.3150367	-130.3208187
Whitecourt, Alberta, Canada	North America	54.1424043	-115.6849812
Lac La Hache, British Columbia, Canada	North America	51.812737	-121.472003
Priddis, Alberta, Canada	North America	50.8853635	-114.32635
Edson, Alberta, Canada	North America	53.5855087	-116.4428615
Sayabec, Quebec, Canada	North America	48.5636652	-67.6866875
Beaconsfield, Quebec, Canada	North America	45.4309308	-73.8682835
Sainte-Emelie-de-L'Energie, Quebec, Canada	North America	46.3333561	-73.6863123
Saint-Jean-de-l'ile-d'Orleans, Quebec, Canada	North America	46.9362661	-70.9119103
East Gwillimbury, Ontario, Canada	North America	44.1010645	-79.4417811
Fredericton, New Brunswick, Canada	North America	45.9635895	-66.6431151
Eastport, Newfoundland and Labrador, Canada	North America	48.6517638	-53.7578462
Fort McMurray, Alberta, Canada	North America	56.7263796	-111.3803407
Ingleside, Ontario, Canada	North America	44.9988842	-74.9897993
Sharbot Lake, Ontario, Canada	North America	44.7694959	-76.689392
Malartic, Quebec, Canada	North America	48.136619	-78.127087
Port George, Nova Scotia, Canada	North America	45.003004	-65.15949
Newboro, Ontario, Canada	North America	44.650287	-76.319731
Mandeville, Quebec, Canada	North America	46.3591314	-73.3527087
McBride, British Columbia, Canada	North America	53.301347	-120.168461
Chambord, Quebec, Canada	North America	48.4290544	-72.0622386
Elkford, British Columbia, Canada	North America	50.024565	-114.92353
Hay River, Northwest Territories, Canada	North America	60.816218	-115.7853653
Long Sault, Ontario, Canada	North America	45.030398	-74.890559
Forestville, Quebec, Canada	North America	48.7391752	-69.087641
Saint-Fabien, Quebec, Canada	North America	48.2940739	-68.8668978
Spiritwood, Saskatchewan, Canada	North America	53.3645441	-107.5174338
Queensland, Nova Scotia, Canada	North America	44.635375	-64.0263049
Lynn Lake, Manitoba, Canada	North America	56.850343	-101.053807
La Bostonnais, Quebec, Canada	North America	47.5300948	-72.6233287
Moose Jaw, Saskatchewan, Canada	North America	50.3915811	-105.5348562
Seaforth, Nova Scotia, Canada	North America	44.665841	-63.257745
Beeton, Ontario, Canada	North America	44.0791616	-79.784315
Tidnish, Nova Scotia, Canada	North America	45.994939	-64.036482
Gravenhurst, Ontario, Canada	North America	44.919643	-79.3741834
Nordegg, Alberta, Canada	North America	52.467986	-116.081488
New Liskeard, Ontario, Canada	North America	47.4793748	-79.7121299
Grand-Barachois, New Brunswick, Canada	North America	46.224286	-64.422473
Wawa, Ontario, Canada	North America	47.992417	-84.7710588
Forest, Ontario, Canada	North America	43.093452	-82.0025626
Val David, Quebec, Canada	North America	46.0306409	-74.2062837
Frelighsburg, Quebec, Canada	North America	45.0392258	-72.8398998
Petty Harbour, Newfoundland and Labrador, Canada	North America	47.4697838	-52.7051779
Mannville, Alberta, Canada	North America	53.3363373	-111.1758002
Battle Harbour, Newfoundland and Labrador, Canada	North America	52.2736272	-55.5852154
Morley, Alberta, Canada	North America	51.161543	-114.850968
Longview, Alberta, Canada	North America	50.5313416	-114.2333875
Stoneham-et-Tewkesbury, Quebec, Canada	North America	47.1492689	-71.3937723
West Vancouver, British Columbia, Canada	North America	49.3348973	-123.1667847
Saint-Francois-de-l'Ile-d'Orleans, Quebec, Canada	North America	47.001684	-70.8132
Castlegar, British Columbia, Canada	North America	49.3237408	-117.6593341
Horsefly, British Columbia, Canada	North America	52.332241	-121.418118
Notre-Dame-de-Lourdes, Quebec, Canada	North America	46.0936015	-73.4590419
King City, Ontario, Canada	North America	43.9286902	-79.5281431
Lac Etchemin, Quebec, Canada	North America	46.3992103	-70.5054567
Torrance, Ontario, Canada	North America	44.991102	-79.570613
Olds, Alberta, Canada	North America	51.7920135	-114.105279
Saint-Bernard-de-Lacolle, Quebec, Canada	North America	45.0577003	-73.4689923
New Westminster, British Columbia, Canada	North America	49.2057179	-122.910956
Vegreville, Alberta, Canada	North America	53.5051735	-112.0621385
Amherstburg, Ontario, Canada	North America	42.1013779	-83.1086977
Brandon, Manitoba, Canada	North America	49.848471	-99.9500904
Pembroke, Ontario, Canada	North America	45.8266513	-77.1108826
Charlevoix, Quebec, Canada	North America	47.6304216	-70.6482074
Meadow Lake, Saskatchewan, Canada	North America	54.1316746	-108.4280261
Sutton, Ontario, Canada	North America	44.3093775	-79.3606359
Pelee Island, Ontario, Canada	North America	41.7744889	-82.6591465
Richmond, Ontario, Canada	North America	45.1943631	-75.8388276
Arichat, Nova Scotia, Canada	North America	45.5137315	-61.0118425
70 Mile House, British Columbia, Canada	North America	51.303136	-121.395769
Montreal, Quebec, Canada	North America	45.5016889	-73.567256
Saint-Zotique, Quebec, Canada	North America	45.2428605	-74.2459569
Denare Beach, Saskatchewan, Canada	North America	54.660937	-102.079907
Steady Brook, Newfoundland and Labrador, Canada	North America	48.951189	-57.833766
Waterdown, Ontario, Canada	North America	43.3247102	-79.9030371
Mabou, Nova Scotia, Canada	North America	46.072099	-61.391766
Smithers, British Columbia, Canada	North America	54.782355	-127.1685541
Deer Island, New Brunswick, Canada	North America	44.242523	-68.6630479
Saint Pierre d'Orleans, Quebec, Canada	North America	46.8877849	-71.0750586
Carberry, Manitoba, Canada	North America	49.8677041	-99.3601764
Clinton, Ontario, Canada	North America	43.6172804	-81.5393953
Barrie, Ontario, Canada	North America	44.3893556	-79.6903316
Victoria Harbour, Ontario, Canada	North America	44.741409	-79.757228
Saint George, New Brunswick, Canada	North America	45.1306531	-66.8261982
Cocagne, New Brunswick, Canada	North America	46.3309173	-64.612708
Cut Knife, Saskatchewan, Canada	North America	52.747843	-109.0206088
Crofton, British Columbia, Canada	North America	48.863844	-123.6457977
Flesherton, Ontario, Canada	North America	44.261851	-80.550416
Pelham, Ontario, Canada	North America	43.037222	-79.328764
Princeville, Quebec, Canada	North America	46.1669906	-71.8755773
Pouce Coupe, British Columbia, Canada	North America	55.7161664	-120.1338865
Kingsey Falls, Quebec, Canada	North America	45.8606766	-72.0712829
Nelson, British Columbia, Canada	North America	49.4928119	-117.2948343
Mississauga, Ontario, Canada	North America	43.5890452	-79.6441198
Kyuquot, British Columbia, Canada	North America	50.0306331	-127.3788126
Port Moody, British Columbia, Canada	North America	49.2849107	-122.8677562
Burwash Landing, Yukon, Canada	North America	61.354167	-138.9944439
Rennie, Manitoba, Canada	North America	49.852778	-95.552778
Hunter River, Prince Edward Island, Canada	North America	46.354948	-63.34898
Maberly, Ontario, Canada	North America	44.836685	-76.541353
Elmvale, Ontario, Canada	North America	44.5836295	-79.8660747
Oxtongue Lake, Ontario, Canada	North America	45.3671245	-78.926248
Sainte-Anne-de-Sorel, Quebec, Canada	North America	46.0762077	-73.0175945
Colborne, Ontario, Canada	North America	42.8865204	-79.2508558
Hatley, Quebec, Canada	North America	45.2948803	-71.9584538
Saint-Mathieu-du-Parc, Quebec, Canada	North America	46.6565986	-72.9391274
Debert, Nova Scotia, Canada	North America	45.4377218	-63.4583016
Saint Malo, Manitoba, Canada	North America	49.3140936	-96.9536156
Lac-Superieur, Quebec, Canada	North America	46.3462069	-74.4665234
Ile du Havre Aubert, Quebec, Canada	North America	47.2333333	-61.9666667
Wawota, Saskatchewan, Canada	North America	49.9031185	-102.0291568
Val-des-Lacs, Quebec, Canada	North America	46.2377544	-74.3922976
Wingham, Ontario, Canada	North America	43.8879476	-81.3116601
Springhill, Nova Scotia, Canada	North America	45.6486482	-64.0599649
Disraeli, Quebec, Canada	North America	45.9046933	-71.3598736
Pictou, Nova Scotia, Canada	North America	45.679332	-62.720603
Port Elgin, Ontario, Canada	North America	44.4340516	-81.3929413
Armstrong, British Columbia, Canada	North America	50.4476983	-119.1969938
Sherman, Texas, United States	North America	33.6356618	-96.6088805
Berlin, Connecticut, United States	North America	41.621488	-72.7456519
Danville, Virginia, United States	North America	36.5859718	-79.3950228
Manasquan, New Jersey, United States	North America	40.1136928	-74.0376355
White Bird, Idaho, United States	North America	45.7615508	-116.3006974
Claypool, Arizona, United States	North America	33.4111659	-110.8426113
Greenwich, Connecticut, United States	North America	41.0262417	-73.6281964
Mossville, Illinois, United States	North America	40.8171184	-89.5679474
Kaysville, Utah, United States	North America	41.0352216	-111.9385521
Hopewell, Pennsylvania, United States	North America	40.1356363	-78.2677903
Severance, Colorado, United States	North America	40.5241479	-104.8510819
Glendive, Montana, United States	North America	47.106401	-104.7107931
Cashmere, Washington, United States	North America	47.5223465	-120.4698024
Barboursville, Virginia, United States	North America	38.1709675	-78.2816723
Cape Elizabeth, Maine, United States	North America	43.563696	-70.2000467
Wheatley Heights, New York, United States	North America	40.76371	-73.3698426
Alma, Michigan, United States	North America	43.3789199	-84.6597274
Bridger, Montana, United States	North America	45.2957807	-108.9137544
Bisbee, Arizona, United States	North America	31.4481547	-109.9284084
Glen Spey, New York, United States	North America	41.4787025	-74.8134977
Prospect, Connecticut, United States	North America	41.5023192	-72.9787163
Rusk, Texas, United States	North America	31.7960064	-95.1502214
Sutherland, Iowa, United States	North America	42.9741434	-95.4975058
Bucyrus, Ohio, United States	North America	40.8083909	-82.9754649
Phoenix, New York, United States	North America	43.2311794	-76.3007639
Keenesburg, Colorado, United States	North America	40.1083158	-104.5199585
Isle La Motte, Vermont, United States	North America	44.8769853	-73.3387437
Roebling, New Jersey, United States	North America	40.1162183	-74.7813146
Cadiz, Kentucky, United States	North America	36.8650496	-87.835295
Martinsville, Virginia, United States	North America	36.6915262	-79.8725386
Kapolei, Hawaii, United States	North America	21.3353909	-158.0568965
Livingston, Montana, United States	North America	45.6614105	-110.5599556
Park Ridge, New Jersey, United States	North America	41.0375968	-74.0406956
New Market, Virginia, United States	North America	38.647896	-78.6714064
Marengo, Illinois, United States	North America	42.2486332	-88.6084269
Winchester, Virginia, United States	North America	39.1856597	-78.1633341
Elgin, Oregon, United States	North America	42.0354084	-88.2825668
Hobart, Oklahoma, United States	North America	35.0295009	-99.0931317
Montague, Michigan, United States	North America	43.4166772	-86.357013
Youngstown, Ohio, United States	North America	41.0997803	-80.6495194
Sandyston, New Jersey, United States	North America	41.2147006	-74.805317
Lehr, North Dakota, United States	North America	46.2796939	-99.3523336
Mullins, South Carolina, United States	North America	34.2057166	-79.2544902
Whitney Point, New York, United States	North America	42.3289625	-75.9677001
New Salem, North Dakota, United States	North America	46.844999	-101.4112545
Orrum, North Carolina, United States	North America	34.4659989	-79.0091979
Unadilla, New York, United States	North America	42.3618503	-75.3178952
Lucas, Kansas, United States	North America	39.0561219	-98.5364559
Jamestown, New York, United States	North America	42.0970023	-79.2353259
Wintersville, Ohio, United States	North America	40.3753456	-80.7036894
Santa Fe, New Mexico, United States	North America	35.6869752	-105.937799
Whitefield, Maine, United States	North America	44.1700735	-69.6253222
Budd Lake, New Jersey, United States	North America	40.8712101	-74.7340523
Ludlow, Kentucky, United States	North America	39.0925597	-84.5474435
Bay Minette, Alabama, United States	North America	30.8829628	-87.7730474
Upper Black Eddy, Pennsylvania, United States	North America	40.5656117	-75.1006068
Tacna, Arizona, United States	North America	32.6975472	-113.9535427
Gallatin, Tennessee, United States	North America	36.3883809	-86.4466599
Wishek, North Dakota, United States	North America	46.2569184	-99.5570567
Rockport, Washington, United States	North America	48.485671	-121.5976334
Wharton, Texas, United States	North America	29.3116366	-96.1027371
Raceland, Louisiana, United States	North America	29.7274331	-90.5989759
Taylorsville, California, United States	North America	40.0754477	-120.8396752
Marshall, Illinois, United States	North America	39.3914252	-87.6936384
Salamanca, New York, United States	North America	42.1578412	-78.7150311
Mechanicsville, Virginia, United States	North America	37.6087561	-77.3733139
Richmond, Virginia, United States	North America	37.5407246	-77.4360481
North Riverside, Illinois, United States	North America	41.8428094	-87.8231138
Healdsburg, California, United States	North America	38.6104658	-122.8691609
East Lansing, Michigan, United States	North America	42.7369792	-84.4838654
Things to Do in New Jersey, New Jersey, United States	North America	40.1370678	-74.4402149
Wayne, New Jersey, United States	North America	40.9253725	-74.2765441
Wixom, Michigan, United States	North America	42.5247555	-83.5363268
Eastpointe, Michigan, United States	North America	42.4683698	-82.9554746
Manchester, Maine, United States	North America	44.324513	-69.8603256
Selma, Texas, United States	North America	29.5843948	-98.3058463
West Dennis, Massachusetts, United States	North America	41.6645557	-70.1727967
Woodsville, New Hampshire, United States	North America	44.1512867	-72.0367187
Saddle Brook, New Jersey, United States	North America	40.9040085	-74.1007318
Ooltewah, Tennessee, United States	North America	35.0712154	-85.0817091
Millboro, Virginia, United States	North America	37.975128	-79.6028226
Burlington, Illinois, United States	North America	42.0528038	-88.5481412
Newport News, Virginia, United States	North America	37.0870821	-76.4730122
Bridal Veil, Oregon, United States	North America	45.554666	-122.1845221
Barryville, New York, United States	North America	41.4774355	-74.9108525
Martinez, Georgia, United States	North America	33.5173577	-82.0756734
Hoboken, New Jersey, United States	North America	40.7439905	-74.0323626
Reliance, Wyoming, United States	North America	41.6691306	-109.1970701
Dupuyer, Montana, United States	North America	48.1916399	-112.4995702
Magnolia, Arkansas, United States	North America	33.2670725	-93.239334
Sanger, Texas, United States	North America	33.3631705	-97.1739027
Crab Orchard, West Virginia, United States	North America	37.7385366	-81.22159
Palmer, Massachusetts, United States	North America	42.1584103	-72.3286869
East Ellijay, Georgia, United States	North America	34.6839746	-84.4727049
Harleton, Texas, United States	North America	32.6765306	-94.5746473
Albright, West Virginia, United States	North America	39.4939772	-79.6428302
Geneseo, New York, United States	North America	42.795896	-77.816947
East Jordan, Michigan, United States	North America	45.1580628	-85.1242254
Pana, Illinois, United States	North America	39.3889311	-89.0800809
Burbank, Ohio, United States	North America	40.988667	-81.9948684
Covington, Kentucky, United States	North America	39.0836712	-84.5085536
Ansonia, Pennsylvania, United States	North America	41.7464605	-77.4283121
Pitkin, Colorado, United States	North America	38.6091612	-106.5166957
Clarkesville, Georgia, United States	North America	34.6125971	-83.5248933
Goldvein, Virginia, United States	North America	38.449015	-77.655267
Littleton, Colorado, United States	North America	39.613321	-105.0166498
Randolph, New Jersey, United States	North America	40.8478065	-74.5747248
Middletown, Virginia, United States	North America	39.0276078	-78.280558
Bedford, Indiana, United States	North America	38.8611619	-86.4872149
Savage, Maryland, United States	North America	39.1378733	-76.8217374
Mission Viejo, California, United States	North America	33.6000232	-117.6719953
Bluefield, Virginia, United States	North America	37.252617	-81.2712105
Williamsfield, Ohio, United States	North America	41.5333874	-80.5706292
Cloverdale, Oregon, United States	North America	45.2055135	-123.8879045
Ontario, Wisconsin, United States	North America	43.7258037	-90.59152
Woodbury, New York, United States	North America	41.3645382	-74.1059775
Georgetown, South Carolina, United States	North America	33.376834	-79.2944964
Coulterville, California, United States	North America	37.7107484	-120.1972129
Jonesport, Maine, United States	North America	44.5310454	-67.6030098
Wise, Virginia, United States	North America	36.9759345	-82.5757108
Osage Beach, Missouri, United States	North America	38.1503113	-92.6179621
Winlock, Washington, United States	North America	46.4912176	-122.9378983
Sheridan, Wyoming, United States	North America	44.7971939	-106.9561791
Atlanta, Indiana, United States	North America	40.2153151	-86.0263746
Hoosick Falls, New York, United States	North America	42.9011892	-73.3515001
Naselle, Washington, United States	North America	46.3653817	-123.8107056
Cuba, New Mexico, United States	North America	36.0222403	-106.9583721
Pittston, Pennsylvania, United States	North America	41.3259134	-75.7893604
North Prairie, Wisconsin, United States	North America	42.934456	-88.4053742
Silver Springs, Florida, United States	North America	29.2180314	-82.0561425
Boonville, California, United States	North America	39.0089749	-123.3671551
Rockbridge, Missouri, United States	North America	36.7895034	-92.4090511
Woodbury, New Jersey, United States	North America	39.8381691	-75.1526774
Hacienda Heights, California, United States	North America	33.9930677	-117.9686755
La Mesa, New Mexico, United States	North America	32.1219048	-106.7078788
Estacada, Oregon, United States	North America	45.2895655	-122.3336963
Urbandale, Iowa, United States	North America	41.6266555	-93.7121656
Seadrift, Texas, United States	North America	28.4152807	-96.7135933
Somerset, New Jersey, United States	North America	40.497604	-74.4884868
Kiowa, Colorado, United States	North America	39.3472095	-104.4644112
Prospect, Maine, United States	North America	44.5531298	-68.8647555
Cheriton, Virginia, United States	North America	37.2895825	-75.9713209
Orondo, Washington, United States	North America	47.6233217	-120.2281346
Perry, Iowa, United States	North America	41.8385964	-94.1071797
Stanfield, North Carolina, United States	North America	35.2334772	-80.4270094
Eudora, Kansas, United States	North America	38.9433372	-95.0985807
Thomaston, Connecticut, United States	North America	41.6743343	-73.0724037
Gold Bar, Washington, United States	North America	47.8567695	-121.6970606
Stevenson, Washington, United States	North America	45.6956723	-121.8845241
Harrison, Maine, United States	North America	44.1103479	-70.6792289
Dousman, Wisconsin, United States	North America	43.014176	-88.4725983
Cumberland Gap, Tennessee, United States	North America	36.599527	-83.6685252
Chester, Vermont, United States	North America	43.2628476	-72.5951082
Glendo, Wyoming, United States	North America	42.5027467	-105.0260832
Hinsdale, Illinois, United States	North America	41.8008642	-87.9370052
Sellersville, Pennsylvania, United States	North America	40.3539926	-75.3048982
Hilo, Hawaii, United States	North America	19.7070942	-155.0884869
Hammondsport, New York, United States	North America	42.4078495	-77.2235873
Spring Lake, North Carolina, United States	North America	35.1679395	-78.9728056
Camp Hill, Alabama, United States	North America	32.8004059	-85.6535659
Agua Dulce, California, United States	North America	34.4963817	-118.3256348
Leo, Indiana, United States	North America	41.2125494	-85.0166351
Leonard, Michigan, United States	North America	42.8653073	-83.1427147
Hopkins, Minnesota, United States	North America	44.9260794	-93.4044187
Dinwiddie, Virginia, United States	North America	37.0774889	-77.5857056
Hawkins, Texas, United States	North America	32.5884735	-95.2041135
Bolton Valley, Vermont, United States	North America	44.42099	-72.850323
Wilber, Nebraska, United States	North America	40.4813257	-96.9605686
Kellogg, Idaho, United States	North America	47.5382565	-116.1193327
Bolivar, Ohio, United States	North America	40.650061	-81.4520613
Portland, New York, United States	North America	42.3797799	-79.4675466
Marathon, Texas, United States	North America	30.2051688	-103.2446205
Sharon, Massachusetts, United States	North America	42.1236499	-71.1786237
Seal Beach, California, United States	North America	33.7414064	-118.1047866
Espyville, Pennsylvania, United States	North America	41.606443	-80.4942365
Picayune, Mississippi, United States	North America	30.5254692	-89.6795084
Placida, Florida, United States	North America	26.8339094	-82.2624037
Montezuma, Kansas, United States	North America	37.5958564	-100.4432047
Pisek, North Dakota, United States	North America	48.3108259	-97.7092537
Macungie, Pennsylvania, United States	North America	40.5159304	-75.5551858
Darlington, Maryland, United States	North America	39.6393033	-76.202916
Bartlett, Tennessee, United States	North America	35.2045328	-89.8739753
Chenango Forks, New York, United States	North America	42.2380181	-75.8463022
Concrete, Washington, United States	North America	48.5392813	-121.7462513
Lee's Summit, Missouri, United States	North America	38.9108408	-94.3821724
Russell, Kansas, United States	North America	38.8952893	-98.8598061
Johnson Creek, Wisconsin, United States	North America	43.076113	-88.7742707
Colchester, Illinois, United States	North America	40.4264306	-90.7926324
Pembroke, New Hampshire, United States	North America	43.1814246	-71.4418101
Greenwood, Arkansas, United States	North America	35.2156489	-94.2557663
Valatie, New York, United States	North America	42.4134168	-73.6731749
Jonesborough, Tennessee, United States	North America	36.2942722	-82.4734787
Boulder Creek, California, United States	North America	37.1260578	-122.1221869
Watch Hill, Rhode Island, United States	North America	41.3139805	-71.8503828
Charles Town, West Virginia, United States	North America	39.2889903	-77.8597175
Idaho Falls, Idaho, United States	North America	43.4916514	-112.0339645
Boiling Springs, Pennsylvania, United States	North America	40.1498124	-77.1283133
Sarasota, Florida, United States	North America	27.3364347	-82.5306527
Dorena, Oregon, United States	North America	43.7198452	-122.8620118
Bensalem, Pennsylvania, United States	North America	40.0994425	-74.9325683
Howard, Ohio, United States	North America	40.4077183	-82.3263709
Door County, Wisconsin, United States	North America	44.8341302	-87.3770488
Monterey, California, United States	North America	36.6002378	-121.8946761
Medway, Maine, United States	North America	45.6122644	-68.5298394
Burke, Virginia, United States	North America	38.7934466	-77.2716505
Monument Valley, Utah, United States	North America	37.0042454	-110.1734785
Twin Bridges, California, United States	North America	38.8113501	-120.1206098
Monument, Colorado, United States	North America	39.0916586	-104.872758
Sun City West, Arizona, United States	North America	33.6619819	-112.3412726
Perryton, Texas, United States	North America	36.4000313	-100.8026505
White Salmon, Washington, United States	North America	45.7276194	-121.4864619
Phenix City, Alabama, United States	North America	32.4709761	-85.0007653
Three Forks, Montana, United States	North America	45.892428	-111.5521925
Moncure, North Carolina, United States	North America	35.6226831	-79.0783474
Fairview Heights, Illinois, United States	North America	38.5889386	-89.990382
Millerton, Pennsylvania, United States	North America	41.984143	-76.9389425
Mansfield, Connecticut, United States	North America	41.788489	-72.2292913
Roanoke Rapids, North Carolina, United States	North America	36.4615395	-77.6541464
Brewster, Massachusetts, United States	North America	41.7600902	-70.0827905
Sparta, Wisconsin, United States	North America	43.9441328	-90.8129118
Arcade, New York, United States	North America	42.5339513	-78.4230737
Hillsboro, Ohio, United States	North America	39.2022866	-83.611587
Bancroft, Idaho, United States	North America	42.7201961	-111.8857901
Corvallis, Oregon, United States	North America	44.5645659	-123.2620435
Quechee, Vermont, United States	North America	43.646227	-72.4186105
Teasdale, Utah, United States	North America	38.2859125	-111.4774629
Christmas Valley, Oregon, United States	North America	43.237797	-120.6708853
Kennedy, New York, United States	North America	42.1572816	-79.1019877
Grand Island, Nebraska, United States	North America	40.9263957	-98.3420118
Marengo, Ohio, United States	North America	40.4008945	-82.8107329
Allegany, Oregon, United States	North America	43.4259469	-124.0323266
Philmont, New York, United States	North America	42.248421	-73.653176
Laguna Niguel, California, United States	North America	33.5225261	-117.7075526
Irving, New York, United States	North America	42.5673417	-79.1126334
North Bend, Ohio, United States	North America	39.1525576	-84.7480038
Penn Valley, California, United States	North America	39.196005	-121.1910659
Enigma, Georgia, United States	North America	31.4129695	-83.3290468
Marcellus, New York, United States	North America	42.9828438	-76.3404867
Denio, Nevada, United States	North America	41.9898955	-118.6343404
Brooklyn Park, Minnesota, United States	North America	45.0941315	-93.3563405
Hiawassee, Georgia, United States	North America	34.9492586	-83.7573948
Chino Valley, Arizona, United States	North America	34.7575227	-112.4537809
Ottawa Lake, Michigan, United States	North America	42.953023	-86.0937312
Slippery Rock, Pennsylvania, United States	North America	41.0639506	-80.0564468
New Buffalo, Michigan, United States	North America	41.7939302	-86.7439154
Chuckey, Tennessee, United States	North America	36.2159371	-82.6882068
Bigelow, Arkansas, United States	North America	35.0011986	-92.6298847
Poseyville, Indiana, United States	North America	38.1700444	-87.7830825
Pacific Grove, California, United States	North America	36.6177374	-121.9166215
Morenci, Michigan, United States	North America	41.7194949	-84.2180026
Keeseville, New York, United States	North America	44.5050479	-73.4801348
Collbran, Colorado, United States	North America	39.2405343	-107.9611808
Belfair, Washington, United States	North America	47.4514588	-122.826946
Washington, West Virginia, United States	North America	39.244853	-81.6637765
Dillon, South Carolina, United States	North America	34.4165505	-79.3711579
Slatyfork, West Virginia, United States	North America	38.4165038	-80.1267359
Bedford, Texas, United States	North America	32.844017	-97.1430671
Wilbur, Washington, United States	North America	47.7587628	-118.7055589
Huntsville, Arkansas, United States	North America	36.086187	-93.7413032
Things to Do in North Dakota, North Dakota, United States	North America	48.9950681	-100.0632073
Hillsboro, Texas, United States	North America	32.0109886	-97.1300061
Putnam, Connecticut, United States	North America	41.9046012	-71.8689917
Rainsville, Alabama, United States	North America	34.4942536	-85.8477494
Brookeville, Maryland, United States	North America	39.1806623	-77.0591452
Glacier, Washington, United States	North America	48.8901226	-121.9457016
Rome, Pennsylvania, United States	North America	41.8584081	-76.3407699
Crestview, Florida, United States	North America	30.7541808	-86.5727995
Arnold, Michigan, United States	North America	46.0507867	-87.4920794
Wild Rose, Wisconsin, United States	North America	44.1785884	-89.2490064
Gillett, Arkansas, United States	North America	34.1173227	-91.3765094
Casey, Illinois, United States	North America	39.2992037	-87.9925339
La Push, Washington, United States	North America	47.9081335	-124.6352255
Grandy, North Carolina, United States	North America	36.241848	-75.8790271
Elgin, Oklahoma, United States	North America	34.7803469	-98.292273
Nogales, Arizona, United States	North America	31.3403775	-110.9342532
Evanston, Wyoming, United States	North America	41.2682794	-110.9632373
Seneca Rocks, West Virginia, United States	North America	38.8348342	-79.3761566
Mancelona, Michigan, United States	North America	44.902229	-85.0608848
Rocky Mount, Missouri, United States	North America	38.2715783	-92.7195382
East Durham, New York, United States	North America	42.3725828	-74.0956914
Toppenish, Washington, United States	North America	46.3773509	-120.3086667
Traver, California, United States	North America	36.4552287	-119.4848471
Hillsgrove, Pennsylvania, United States	North America	41.4436778	-76.7105632
Marathon Shores, Florida, United States	North America	24.7256965	-81.0484058
Sorrento, Louisiana, United States	North America	30.1843642	-90.8592632
Powell, Wyoming, United States	North America	44.7538408	-108.7573524
York Haven, Pennsylvania, United States	North America	40.1109277	-76.7158012
Belleville, Pennsylvania, United States	North America	40.6050706	-77.7255502
Winner, South Dakota, United States	North America	43.3766665	-99.8590069
Yreka, California, United States	North America	41.7354186	-122.6344708
Orford, New Hampshire, United States	North America	43.9014167	-72.1417216
Raleigh, North Carolina, United States	North America	35.7795897	-78.6381787
Maalaea, Hawaii, United States	North America	20.7963889	-156.5141667
Larchmont, New York, United States	North America	40.9278769	-73.7517983
Westmoreland, New Hampshire, United States	North America	42.9620253	-72.4423102
Pepin, Wisconsin, United States	North America	44.4410785	-92.14795
Jonesboro, Arkansas, United States	North America	35.8422967	-90.704279
Otter Rock, Oregon, United States	North America	44.747208	-124.0615459
Clarence, New York, United States	North America	42.982216	-78.5770812
Sloatsburg, New York, United States	North America	41.1545395	-74.192924
Parker, Arizona, United States	North America	34.1500162	-114.2891177
Spring House, Pennsylvania, United States	North America	40.1853862	-75.2276756
Frazee, Minnesota, United States	North America	46.7280146	-95.7008776
Wilton, Maine, United States	North America	44.5926953	-70.2280983
Bettendorf, Iowa, United States	North America	41.56085	-90.48344
Vallejo, California, United States	North America	38.1040864	-122.2566367
Terryville, Connecticut, United States	North America	41.6781533	-73.0109393
Aquebogue, New York, United States	North America	40.9445438	-72.6270382
Big Flats, New York, United States	North America	42.1372967	-76.9369067
Marathon, Florida, United States	North America	24.726026	-81.0446262
Rougemont, North Carolina, United States	North America	36.2184752	-78.926397
Chadbourn, North Carolina, United States	North America	34.3221129	-78.8269664
Derby, Kansas, United States	North America	37.5455735	-97.2689331
Camanche, Iowa, United States	North America	41.7853085	-90.2529064
Glenwood Springs, Colorado, United States	North America	39.5505376	-107.3247762
Burfordville, Missouri, United States	North America	37.3675525	-89.807042
Bowbells, North Dakota, United States	North America	48.8030833	-102.2460008
Skaneateles, New York, United States	North America	42.947011	-76.4291017
Oregon, Illinois, United States	North America	42.0147513	-89.3323279
Claryville, New York, United States	North America	41.918425	-74.5723785
Mellen, Wisconsin, United States	North America	46.325506	-90.6610165
Palos Verdes Estates, California, United States	North America	33.8005714	-118.3900737
San Dimas, California, United States	North America	34.1066756	-117.8067257
Aurora, North Carolina, United States	North America	35.3054469	-76.788543
Rocky Mountain National Park, Colorado, United States	North America	40.3427932	-105.6836389
Lompoc, California, United States	North America	34.6391501	-120.4579409
Vallonia, Indiana, United States	North America	38.8459276	-86.0973151
East Meadow, New York, United States	North America	40.7139898	-73.5590157
Altus, Arkansas, United States	North America	35.4461965	-93.7624172
Mitchell, Indiana, United States	North America	38.7328304	-86.4736019
Benicia, California, United States	North America	38.049365	-122.1585777
Carbondale, Kansas, United States	North America	38.8186155	-95.6891498
Bloxom, Virginia, United States	North America	37.8295713	-75.6232616
Newport, Washington, United States	North America	48.1796277	-117.0432583
Walled Lake, Michigan, United States	North America	42.537811	-83.4810481
Lenexa, Kansas, United States	North America	38.9536174	-94.7335709
Vauxhall, New Jersey, United States	North America	40.7189709	-74.285017
Whitefish Bay, Wisconsin, United States	North America	43.1133444	-87.9000856
Waikoloa, Hawaii, United States	North America	19.9372484	-155.7910681
Olympic National Park, Washington, United States	North America	47.8021067	-123.6043524
Clear Lake, Iowa, United States	North America	43.1435564	-93.3788108
Bradley Beach, New Jersey, United States	North America	40.2023354	-74.0120814
Geneseo, Illinois, United States	North America	41.4480902	-90.1542848
Egg Harbor, Wisconsin, United States	North America	45.0463807	-87.2970502
Riverside, New Jersey, United States	North America	40.0323338	-74.9573908
Cocoa Beach, Florida, United States	North America	28.3200067	-80.6075513
Weymouth, Massachusetts, United States	North America	42.2180724	-70.9410356
Reston, Virginia, United States	North America	38.9586307	-77.3570028
San Cristobal, New Mexico, United States	North America	36.596413	-105.6394538
Seal Harbor, Maine, United States	North America	44.3033177	-68.2399989
Shawnee, Kansas, United States	North America	39.0228485	-94.7151865
Patterson, California, United States	North America	37.4716001	-121.129656
Plainville, Connecticut, United States	North America	41.6757457	-72.8633635
Huddleston, Virginia, United States	North America	37.158334	-79.4736695
Friedheim, Missouri, United States	North America	37.5700525	-89.8201027
Ellicott City, Maryland, United States	North America	39.2673283	-76.7983067
Lake Clear, New York, United States	North America	44.3675548	-74.2326587
Zoar, Ohio, United States	North America	40.6142285	-81.4223375
North Little Rock, Arkansas, United States	North America	34.769536	-92.2670941
Kiln, Mississippi, United States	North America	30.4090829	-89.4350519
Stanford, Kentucky, United States	North America	37.5311901	-84.6618876
Dover, New Hampshire, United States	North America	43.1978624	-70.8736698
Freeport, Illinois, United States	North America	42.2966861	-89.6212271
Harris, Michigan, United States	North America	45.8175736	-87.4046889
Lemont, Illinois, United States	North America	41.673642	-88.0017261
Havana, North Dakota, United States	North America	45.95024	-97.618988
Bellaire, Michigan, United States	North America	44.9802822	-85.2111728
Alpine, Utah, United States	North America	40.4532833	-111.7779865
Forest, Mississippi, United States	North America	32.3645888	-89.4742348
Thayne, Wyoming, United States	North America	42.9207567	-111.0021556
Keedysville, Maryland, United States	North America	39.4862106	-77.6997141
Benoit, Wisconsin, United States	North America	46.5018907	-91.0768585
Fairfield Bay, Arkansas, United States	North America	35.5942441	-92.2779324
Manning, South Carolina, United States	North America	33.6951627	-80.2109134
Westphalia, Michigan, United States	North America	42.9294782	-84.798605
Wenatchee, Washington, United States	North America	47.4234599	-120.3103494
Fiddletown, California, United States	North America	38.5039105	-120.7565689
Glen Ellen, California, United States	North America	38.3640795	-122.5241487
Tucson, Arizona, United States	North America	32.2217429	-110.926479
Neshkoro, Wisconsin, United States	North America	43.9658121	-89.2176187
Mohnton, Pennsylvania, United States	North America	40.2859255	-75.9843804
Bolinas, California, United States	North America	37.9093702	-122.6863733
Elberton, Georgia, United States	North America	34.1112226	-82.8670839
Calumet, Michigan, United States	North America	47.2465922	-88.454006
Cuba City, Wisconsin, United States	North America	42.6055549	-90.4298502
Brewster, Ohio, United States	North America	40.707003	-81.5981799
Arnold, Missouri, United States	North America	38.4328317	-90.3776187
Brown City, Michigan, United States	North America	43.2122486	-82.9896604
Koloa, Hawaii, United States	North America	21.9066667	-159.4691667
Bingham Lake, Minnesota, United States	North America	43.9066875	-95.0449887
Gloucester City, New Jersey, United States	North America	39.8917799	-75.1162863
Aurora, West Virginia, United States	North America	39.3242679	-79.5544989
Mount Morris, Pennsylvania, United States	North America	39.7331345	-80.0678424
Cuba, New York, United States	North America	42.2175668	-78.2752927
Washington Crossing, Pennsylvania, United States	North America	40.292903	-74.8718769
Monticello, Iowa, United States	North America	42.2383351	-91.1870937
Zimmerman, Minnesota, United States	North America	45.4432986	-93.589962
Woodsboro, Maryland, United States	North America	39.5331563	-77.314706
Carnation, Washington, United States	North America	47.6478787	-121.9140073
Burbank, California, United States	North America	34.1808392	-118.3089661
Things to Do in West Virginia, West Virginia, United States	North America	39.038549	-80.471694
Kula, Hawaii, United States	North America	20.7909697	-156.3269338
Midland, Michigan, United States	North America	43.6155825	-84.2472116
Scotland, South Dakota, United States	North America	43.1497151	-97.7175669
Sunol, California, United States	North America	37.5943781	-121.8885683
Mammoth Cave National Park, Kentucky, United States	North America	37.1861597	-86.0999753
Fayetteville, Tennessee, United States	North America	35.1520266	-86.5705508
Granville, Massachusetts, United States	North America	42.0996545	-72.9224329
Big Water, Utah, United States	North America	37.0824856	-111.6643335
Webster, Massachusetts, United States	North America	42.050091	-71.8800628
Auburn, New York, United States	North America	42.9317335	-76.5660529
Tuftonboro, New Hampshire, United States	North America	43.6963	-71.2221024
Chesapeake City, Maryland, United States	North America	39.530946	-75.8074367
Graford, Texas, United States	North America	32.9376218	-98.2469919
Saint Francisville, Louisiana, United States	North America	30.7880721	-91.3768479
High Bridge, New Jersey, United States	North America	40.6670454	-74.8957231
Sunfish Lake, Minnesota, United States	North America	44.8707992	-93.098551
Greenfield, Iowa, United States	North America	41.3052657	-94.4613543
Herndon, Virginia, United States	North America	38.9695545	-77.3860976
Lake Bronson, Minnesota, United States	North America	48.7355341	-96.6628218
Cutchogue, New York, United States	North America	41.0106563	-72.4850859
Ogdensburg, New York, United States	North America	44.6942291	-75.4863364
Anaconda, Montana, United States	North America	46.1262998	-112.9478359
Henderson, Arkansas, United States	North America	36.3806216	-92.2276564
Stone Park, Illinois, United States	North America	41.9055862	-87.8836732
Greers Ferry, Arkansas, United States	North America	35.5770219	-92.1773745
Arlington, Virginia, United States	North America	38.8816208	-77.0909809
Camino, California, United States	North America	38.738046	-120.6743853
Pomona, California, United States	North America	34.055103	-117.7499909
Pocono Manor, Pennsylvania, United States	North America	41.1000551	-75.3588725
Gladwyne, Pennsylvania, United States	North America	40.0493121	-75.2770721
Cold Spring Harbor, New York, United States	North America	40.8714873	-73.456788
Brady, Nebraska, United States	North America	41.0222267	-100.3676328
Medicine Lodge, Kansas, United States	North America	37.2811339	-98.580361
Enola, Pennsylvania, United States	North America	40.2900885	-76.9338636
Cashton, Wisconsin, United States	North America	43.7419143	-90.7792984
Grovetown, Georgia, United States	North America	33.4504157	-82.1981764
Williamsport, Maryland, United States	North America	39.6006523	-77.8205508
Newport, Oregon, United States	North America	41.4901024	-71.3128285
Spring, Texas, United States	North America	30.0799405	-95.4171601
Richmond, Utah, United States	North America	41.9227056	-111.8135571
Dry Creek, Louisiana, United States	North America	30.6690861	-93.0454332
Ridgeland, South Carolina, United States	North America	32.4807435	-80.980386
Cedar Creek, Texas, United States	North America	30.0873153	-97.501432
Hayden, Colorado, United States	North America	40.4894302	-107.2636842
Picabo, Idaho, United States	North America	43.3058077	-114.0660641
Harrisburg, South Dakota, United States	North America	43.4313663	-96.69727
Rosedale, Maryland, United States	North America	39.3201074	-76.5155191
Pickford, Michigan, United States	North America	46.182659	-84.3085645
Sea Cliff, New York, United States	North America	40.8489887	-73.6448505
Jefferson, Ohio, United States	North America	41.7386662	-80.7698066
Halifax, Pennsylvania, United States	North America	40.4681409	-76.9319198
Ashland, Oregon, United States	North America	42.1945758	-122.7094767
Caledonia, Illinois, United States	North America	42.369463	-88.8926041
Marysville, Washington, United States	North America	48.0517637	-122.1770818
Sea Girt, New Jersey, United States	North America	40.1320592	-74.0345813
Burlington, North Dakota, United States	North America	48.2752881	-101.4287751
Clinton, Maryland, United States	North America	38.7651145	-76.8983059
Vassalboro, Maine, United States	North America	44.4588807	-69.6777605
Paradise, California, United States	North America	39.7596061	-121.6219177
Balmorhea, Texas, United States	North America	30.9843123	-103.7446257
Drumore, Pennsylvania, United States	North America	39.7917702	-76.2649569
Nathrop, Colorado, United States	North America	38.7472183	-106.0755712
Fountain Green, Utah, United States	North America	39.6299598	-111.635199
Menno, South Dakota, United States	North America	43.2397131	-97.5778442
Ka'anapali, Hawaii, United States	North America	20.9331214	-156.6831418
Saint Ignatius, Montana, United States	North America	47.3199306	-114.0939979
Deer Park, Washington, United States	North America	47.9543375	-117.476891
Gerrardstown, West Virginia, United States	North America	39.3703778	-78.0955563
Kelseyville, California, United States	North America	38.9779531	-122.8394375
Casey Key, Florida, United States	North America	27.1500534	-82.4806525
Rosemont, Pennsylvania, United States	North America	40.0256664	-75.3237979
Fieldale, Virginia, United States	North America	36.7001373	-79.9386518
Centerville, Minnesota, United States	North America	45.1630223	-93.0557757
Palmetto, Florida, United States	North America	27.5214269	-82.5723193
Union, Connecticut, United States	North America	41.9909296	-72.1572992
Topton, North Carolina, United States	North America	35.2470348	-83.7032269
Starkville, Mississippi, United States	North America	33.4503998	-88.8183872
Fort Rock, Oregon, United States	North America	43.3735424	-121.0698361
Crescent, Iowa, United States	North America	41.364996	-95.8580668
Aurora, Texas, United States	North America	33.0606784	-97.5033561
Side Lake, Minnesota, United States	North America	47.6652067	-93.015739
Belton, South Carolina, United States	North America	34.5228881	-82.4942948
Louisa, Virginia, United States	North America	37.9925909	-77.973865
Ashland, Virginia, United States	North America	37.7590318	-77.4799837
Chelsea, Massachusetts, United States	North America	42.3917638	-71.0328284
Alpine, Arizona, United States	North America	33.8483212	-109.1432936
Howard Lake, Minnesota, United States	North America	45.0612665	-94.0742843
Savery, Wyoming, United States	North America	41.024965	-107.4497854
Reeds Spring, Missouri, United States	North America	36.7497827	-93.3779641
Madison, Virginia, United States	North America	38.3804062	-78.2575035
Pleasant Hill, California, United States	North America	37.9479786	-122.0607963
Carmichael, California, United States	North America	38.617127	-121.3282843
Franklin, Kentucky, United States	North America	36.722263	-86.5772177
Yachats, Oregon, United States	North America	44.3112312	-124.1048418
Longport, New Jersey, United States	North America	39.3142827	-74.5248756
Westlake, Oregon, United States	North America	41.4553232	-81.9179173
Versailles, Ohio, United States	North America	40.2225481	-84.484396
Port Bolivar, Texas, United States	North America	29.3807901	-94.7643623
Eubank, Kentucky, United States	North America	37.2784114	-84.6585555
Lykens, Pennsylvania, United States	North America	40.5667527	-76.700522
Buffalo Ridge, South Dakota, United States	North America	43.5967509	-96.8180961
Andale, Kansas, United States	North America	37.790567	-97.629492
Baker, Montana, United States	North America	46.3694501	-104.2774404
Pepeekeo, Hawaii, United States	North America	19.8336111	-155.1072222
Clarks Hill, South Carolina, United States	North America	33.6709653	-82.1728982
Earlville, Illinois, United States	North America	41.5894754	-88.9220265
Kihei, Hawaii, United States	North America	20.7644275	-156.4450063
Staten Island, New York, United States	North America	40.5795317	-74.1502007
Clearwater, Florida, United States	North America	27.9658533	-82.8001026
Pearblossom, California, United States	North America	34.5064141	-117.9096804
Wenham, Massachusetts, United States	North America	42.604261	-70.8911612
New Smyrna Beach, Florida, United States	North America	29.0258191	-80.9269984
Jacksonport, Wisconsin, United States	North America	44.9786066	-87.1856593
Weston, West Virginia, United States	North America	39.0384274	-80.467313
Blythe, California, United States	North America	33.6177725	-114.5882607
Aldie, Virginia, United States	North America	38.9756745	-77.6418724
Hillsborough, North Carolina, United States	North America	36.0754183	-79.0997347
Scotia, Nebraska, United States	North America	41.4664006	-98.7031344
Dover, Vermont, United States	North America	42.943669	-72.8025938
Hudson, New Hampshire, United States	North America	42.7647763	-71.4398074
Greer, South Carolina, United States	North America	34.9387279	-82.2270568
Corea, Maine, United States	North America	44.4009135	-67.9750023
Barnhart, Missouri, United States	North America	38.344221	-90.3934532
Buffalo, Minnesota, United States	North America	45.1717846	-93.8747929
Mamaroneck, New York, United States	North America	40.9487097	-73.7326309
Blue Rock, Ohio, United States	North America	39.8000697	-81.8915241
Elk City, Oklahoma, United States	North America	35.4119944	-99.4042592
Demorest, Georgia, United States	North America	34.565098	-83.5451724
Mount Kisco, New York, United States	North America	41.2042616	-73.7270761
Philadelphia, Pennsylvania, United States	North America	39.9525839	-75.1652215
Stonewall, Texas, United States	North America	30.2360359	-98.6644769
Dyersburg, Tennessee, United States	North America	36.0345159	-89.3856281
Ionia, Michigan, United States	North America	42.9872547	-85.0711174
Blair, Nebraska, United States	North America	41.5446975	-96.1350702
Brandenburg, Kentucky, United States	North America	37.9989592	-86.1694143
Cosby, Tennessee, United States	North America	35.8154772	-83.2477597
Brookfield, Connecticut, United States	North America	41.4825947	-73.4095652
North Naples, Florida, United States	North America	26.2670045	-81.7896381
Ursa, Illinois, United States	North America	40.0747682	-91.3673711
Escalante, Utah, United States	North America	37.7702663	-111.602119
Victorville, California, United States	North America	34.5362184	-117.2927641
Little Elm, Texas, United States	North America	33.1626193	-96.9375051
West Liberty, Ohio, United States	North America	40.2522771	-83.7557663
Dauphin Island, Alabama, United States	North America	30.2542565	-88.1124155
Holley, New York, United States	North America	43.2264486	-78.0266826
Rohnert Park, California, United States	North America	38.3396367	-122.7010984
Miller, Missouri, United States	North America	37.2147751	-93.8399313
La Farge, Wisconsin, United States	North America	43.5746959	-90.6404083
Kingman, Arizona, United States	North America	35.189443	-114.0530065
Saint Clair, Michigan, United States	North America	42.8208653	-82.486024
New Madrid, Missouri, United States	North America	36.5864488	-89.5278547
Lake Geneva, Wisconsin, United States	North America	42.5916836	-88.4334301
Port Republic, Virginia, United States	North America	38.2962397	-78.8105803
New Boston, Texas, United States	North America	33.4598415	-94.4154787
Poolesville, Maryland, United States	North America	39.1459392	-77.4169311
Meadowview, Virginia, United States	North America	36.7603486	-81.8628484
King George, Virginia, United States	North America	38.2664512	-77.1807842
Troy, North Carolina, United States	North America	35.3584743	-79.8944901
Sonoma, California, United States	North America	38.291859	-122.4580356
Farmington Hills, Michigan, United States	North America	42.4989936	-83.3677168
Hopkinton, Massachusetts, United States	North America	42.2286954	-71.5225646
Winnfield, Louisiana, United States	North America	31.9254413	-92.6395931
Kenilworth, New Jersey, United States	North America	40.6764911	-74.2907032
Competa, Costa del Sol, Spain	Europe	36.4989159	-4.6867229
Lodz Province, Central Poland, Poland	Europe	51.7791041	19.4692398
Dursley, Cotswolds, United Kingdom	Europe	51.6808812	-2.3610059
Campodipietra, Province of Treviso, Italy	Europe	45.7027166	12.5323621
Sanino, Central Russia, Russia	Europe	55.9999336	38.9314367
Pedrola, Aragon, Spain	Europe	41.7872274	-1.2168128
Magherafelt, County Londonderry, United Kingdom	Europe	54.9294897	-6.9280201
Stirling, Stirlingshire, United Kingdom	Europe	56.1165227	-3.9369029
Magliano de' Marsi, Province of L'Aquila, Italy	Europe	42.0918418	13.3649154
Monflanquin, Lot-et-Garonne, France	Europe	44.532748	0.767717
Saint-Priest-la-Prugne, Auvergne-Rhone-Alpes, France	Europe	45.96081	3.749906
Predeal, Brasov County, Romania	Europe	45.4963952	25.5815062
Roccamonfina, Province of Caserta, Italy	Europe	41.2928103	13.9851231
Sogne Municipality, Vest-Agder, Norway	Europe	58.0907773	7.7857414
Orroli, Sardinia, Italy	Europe	39.6938053	9.2525876
Valras-Plage, Herault, France	Europe	43.248668	3.29233
Holywell, Flintshire, United Kingdom	Europe	53.276009	-3.225103
Agios Gordios, Corfu, Greece	Europe	39.5470749	19.8512935
Sidmouth, England, United Kingdom	Europe	50.67865	-3.23756
Saint Francois Longchamp, Savoie, France	Europe	45.409631	6.348243
Nerezine, Primorje-Gorski Kotar County, Croatia	Europe	44.6568745	14.3952339
Gela, Province of Caltanissetta, Italy	Europe	37.0741526	14.2403537
Ravenna, Province of Ravenna, Italy	Europe	44.4183598	12.2035294
Willesborough, Kent, United Kingdom	Europe	51.138514	0.897947
Caravate, Province of Varese, Italy	Europe	45.8755043	8.6481809
Aix-en-Provence, Bouches-du-Rhone, France	Europe	43.529742	5.447427
Velka Lomnica, Presov Region, Slovakia	Europe	49.1134721	20.3576211
Aviano, Province of Pordenone, Italy	Europe	46.0695445	12.5881394
Abcoude, Utrecht Province, The Netherlands	Europe	52.272071	4.9704743
Olenegorsk, Murmansk Oblast, Russia	Europe	68.142461	33.2573919
Analipsi, Dodecanese, Greece	Europe	36.5790607	26.385284
Strasbourg, Bas-Rhin, France	Europe	48.5734053	7.7521113
Mumbles, Swansea County, United Kingdom	Europe	51.575906	-3.999879
Szabolcs, Northern Great Plain, Hungary	Europe	48.172427	21.4955708
Finchingfield, Essex, United Kingdom	Europe	51.9674788	0.450053
Abriachan, Scottish Highlands, United Kingdom	Europe	57.384635	-4.403417
Copanello, Calabria, Italy	Europe	38.7677222	16.5665096
Hauzenberg, Lower Bavaria, Germany	Europe	48.652865	13.6255062
Saint-Maximin-la-Sainte-Baume, Var, France	Europe	43.452497	5.864004
Casal de Loivos, Northern Portugal, Portugal	Europe	41.2004665	-7.5337066
Nefteyugansk, Khanty-Mansi Autonomous Okrug-Yugra, Russia	Europe	61.0980641	72.5816466
Exireuil, Nouvelle-Aquitaine, France	Europe	46.433351	-0.19231
Santa Gertrudis, Balearic Islands, Spain	Europe	38.9986978	1.4283253
Sarno, Province of Salerno, Italy	Europe	40.8101009	14.6215811
Almonte, Province of Huelva, Spain	Europe	37.2596578	-6.5169753
Montalcino, Province of Siena, Italy	Europe	43.0551015	11.4890032
Barnoldswick, Lancashire, United Kingdom	Europe	53.913015	-2.186918
Vulaines sur Seine, Ile-de-France, France	Europe	48.430925	2.764365
